[
 {
   "zipCode": "01067",
   "name": "Dresden",
   "longitude": 13.7210676148814,
   "latitude": 51.0600336463379
 },
 {
   "zipCode": "01069",
   "name": "Dresden",
   "longitude": 13.7389066401609,
   "latitude": 51.039558876083
 },
 {
   "zipCode": "01097",
   "name": "Dresden",
   "longitude": 13.7439674110642,
   "latitude": 51.0667452412037
 },
 {
   "zipCode": "01099",
   "name": "Dresden",
   "longitude": 13.8289798683304,
   "latitude": 51.0926193047084
 },
 {
   "zipCode": "01108",
   "name": "Dresden",
   "longitude": 13.8289798683304,
   "latitude": 51.0926193047084
 },
 {
   "zipCode": "01109",
   "name": "Dresden",
   "longitude": 13.7619645364861,
   "latitude": 51.1201009324663
 },
 {
   "zipCode": "01127",
   "name": "Dresden",
   "longitude": 13.733347378178,
   "latitude": 51.0796304130158
 },
 {
   "zipCode": "01129",
   "name": "Dresden",
   "longitude": 13.7274104697459,
   "latitude": 51.0967944759693
 },
 {
   "zipCode": "01139",
   "name": "Dresden",
   "longitude": 13.6911443969423,
   "latitude": 51.0805574259239
 },
 {
   "zipCode": "01156",
   "name": "Cossebaude",
   "longitude": 13.6233072524789,
   "latitude": 51.0666308149291
 },
 {
   "zipCode": "01157",
   "name": "Dresden",
   "longitude": 13.6708047478723,
   "latitude": 51.0643076931977
 },
 {
   "zipCode": "01159",
   "name": "Dresden",
   "longitude": 13.7006915581674,
   "latitude": 51.0426057654929
 },
 {
   "zipCode": "01169",
   "name": "Dresden",
   "longitude": 13.669187770824,
   "latitude": 51.0402553993976
 },
 {
   "zipCode": "01187",
   "name": "Dresden",
   "longitude": 13.7026657714036,
   "latitude": 51.0263802661785
 },
 {
   "zipCode": "01189",
   "name": "Dresden",
   "longitude": 13.7045105691695,
   "latitude": 51.0139161289227
 },
 {
   "zipCode": "01217",
   "name": "Dresden",
   "longitude": 13.7445163387362,
   "latitude": 51.0171437482078
 },
 {
   "zipCode": "01219",
   "name": "Dresden",
   "longitude": 13.767050572669,
   "latitude": 51.0223236798061
 },
 {
   "zipCode": "01237",
   "name": "Dresden",
   "longitude": 13.7995859170998,
   "latitude": 51.0175665126765
 },
 {
   "zipCode": "01239",
   "name": "Dresden",
   "longitude": 13.7910680057092,
   "latitude": 51.0026829600855
 },
 {
   "zipCode": "01257",
   "name": "Dresden",
   "longitude": 13.8159850373907,
   "latitude": 50.9967325356128
 },
 {
   "zipCode": "01259",
   "name": "Dresden",
   "longitude": 13.8504009228778,
   "latitude": 50.9954059978924
 },
 {
   "zipCode": "01277",
   "name": "Dresden",
   "longitude": 13.7996248266757,
   "latitude": 51.0358690261521
 },
 {
   "zipCode": "01279",
   "name": "Dresden",
   "longitude": 13.829358598703,
   "latitude": 51.0262558292618
 },
 {
   "zipCode": "01307",
   "name": "Dresden",
   "longitude": 13.7726271881428,
   "latitude": 51.054135498816
 },
 {
   "zipCode": "01309",
   "name": "Dresden",
   "longitude": 13.7914262584064,
   "latitude": 51.0486489302583
 },
 {
   "zipCode": "01324",
   "name": "Dresden",
   "longitude": 13.8565349336316,
   "latitude": 51.0657832255777
 },
 {
   "zipCode": "01326",
   "name": "Dresden",
   "longitude": 13.8604932218226,
   "latitude": 51.0255377692464
 },
 {
   "zipCode": "01328",
   "name": "Dresden",
   "longitude": 13.8604932218226,
   "latitude": 51.0255377692464
 },
 {
   "zipCode": "01445",
   "name": "Radebeul",
   "longitude": 13.6432842540266,
   "latitude": 51.113631945926
 },
 {
   "zipCode": "01454",
   "name": "Radeberg",
   "longitude": 13.9174778607087,
   "latitude": 51.1322204297425
 },
 {
   "zipCode": "01458",
   "name": "Ottendorf-Okrilla",
   "longitude": 13.8458463274789,
   "latitude": 51.1806998157721
 },
 {
   "zipCode": "01465",
   "name": "Langebrück",
   "longitude": 13.8529489368089,
   "latitude": 51.1391981640663
 },
 {
   "zipCode": "01468",
   "name": "Reichenberg",
   "longitude": 13.6880862158881,
   "latitude": 51.1643597588491
 },
 {
   "zipCode": "01471",
   "name": "Radeburg",
   "longitude": 13.7337932032249,
   "latitude": 51.2077931641187
 },
 {
   "zipCode": "01474",
   "name": "Schönfeld-Weißig",
   "longitude": 13.9103529151579,
   "latitude": 51.0419834157698
 },
 {
   "zipCode": "01477",
   "name": "Arnsdorf bei Dresden",
   "longitude": 13.985677697989,
   "latitude": 51.0920430235188
 },
 {
   "zipCode": "01478",
   "name": "Weixdorf",
   "longitude": 13.7870919641968,
   "latitude": 51.1547881534152
 },
 {
   "zipCode": "01558",
   "name": "Großenhain",
   "longitude": 13.5315731714366,
   "latitude": 51.2891145903037
 },
 {
   "zipCode": "01561",
   "name": "Großenhain",
   "longitude": 13.6355869926486,
   "latitude": 51.2976909803264
 },
 {
   "zipCode": "01587",
   "name": "Riesa",
   "longitude": 13.2733841506402,
   "latitude": 51.3026420079985
 },
 {
   "zipCode": "01589",
   "name": "Riesa",
   "longitude": 13.3280500186448,
   "latitude": 51.2932197615145
 },
 {
   "zipCode": "01591",
   "name": "Riesa",
   "longitude": 13.2476316657648,
   "latitude": 51.3185782906327
 },
 {
   "zipCode": "01594",
   "name": "Riesa",
   "longitude": 13.2926021143652,
   "latitude": 51.2602843720622
 },
 {
   "zipCode": "01609",
   "name": "Gröditz",
   "longitude": 13.4276267953258,
   "latitude": 51.3933055816495
 },
 {
   "zipCode": "01612",
   "name": "Nünchritz",
   "longitude": 13.4107636804349,
   "latitude": 51.2971491835087
 },
 {
   "zipCode": "01616",
   "name": "Strehla",
   "longitude": 13.233513371901,
   "latitude": 51.3627774545254
 },
 {
   "zipCode": "01619",
   "name": "Zeithain",
   "longitude": 13.3175571414469,
   "latitude": 51.3693241709444
 },
 {
   "zipCode": "01623",
   "name": "Lommatzsch",
   "longitude": 13.2973632027006,
   "latitude": 51.1651622463419
 },
 {
   "zipCode": "01640",
   "name": "Coswig",
   "longitude": 13.580926302194,
   "latitude": 51.1387586054451
 },
 {
   "zipCode": "01662",
   "name": "Meißen",
   "longitude": 13.4806311361759,
   "latitude": 51.1625202644459
 },
 {
   "zipCode": "01665",
   "name": "Meißen",
   "longitude": 13.4489544026039,
   "latitude": 51.1362568421529
 },
 {
   "zipCode": "01683",
   "name": "Nossen",
   "longitude": 13.3391720317397,
   "latitude": 51.0624700142114
 },
 {
   "zipCode": "01689",
   "name": "Weinböhla",
   "longitude": 13.5635350452693,
   "latitude": 51.1835327936398
 },
 {
   "zipCode": "01705",
   "name": "Freital",
   "longitude": 13.6382950999229,
   "latitude": 50.9981963286795
 },
 {
   "zipCode": "01723",
   "name": "Wilsdruff",
   "longitude": 13.5134891000342,
   "latitude": 51.0284130540989
 },
 {
   "zipCode": "01728",
   "name": "Bannewitz",
   "longitude": 13.7291369853809,
   "latitude": 50.9821082979879
 },
 {
   "zipCode": "01731",
   "name": "Kreischa",
   "longitude": 13.7597324486117,
   "latitude": 50.9487885660998
 },
 {
   "zipCode": "01734",
   "name": "Rabenau",
   "longitude": 13.6687274547601,
   "latitude": 50.9501368757072
 },
 {
   "zipCode": "01737",
   "name": "Tharandt",
   "longitude": 13.5201035014231,
   "latitude": 50.966260898006
 },
 {
   "zipCode": "01738",
   "name": "Colmnitz",
   "longitude": 13.5173401169574,
   "latitude": 50.9152518327972
 },
 {
   "zipCode": "01744",
   "name": "Dippoldiswalde",
   "longitude": 13.654532984486,
   "latitude": 50.8921186026725
 },
 {
   "zipCode": "01762",
   "name": "Schmiedeberg",
   "longitude": 13.617842237346,
   "latitude": 50.8161179074883
 },
 {
   "zipCode": "01768",
   "name": "Glashütte",
   "longitude": 13.7645505179288,
   "latitude": 50.8559644594502
 },
 {
   "zipCode": "01773",
   "name": "Altenberg",
   "longitude": 13.7227980508795,
   "latitude": 50.7701863367731
 },
 {
   "zipCode": "01774",
   "name": "Höckendorf",
   "longitude": 13.5669529340257,
   "latitude": 50.8900816196631
 },
 {
   "zipCode": "01776",
   "name": "Hermsdorf / Erzgebirge",
   "longitude": 13.6629879743292,
   "latitude": 50.7710497670944
 },
 {
   "zipCode": "01778",
   "name": "Geising",
   "longitude": 13.8426295641397,
   "latitude": 50.7650698619091
 },
 {
   "zipCode": "01796",
   "name": "Pirna",
   "longitude": 13.9720733354254,
   "latitude": 50.9371542514534
 },
 {
   "zipCode": "01809",
   "name": "Heidenau",
   "longitude": 13.8449931917694,
   "latitude": 50.9455250223989
 },
 {
   "zipCode": "01814",
   "name": "Bad Schandau",
   "longitude": 14.1966335474363,
   "latitude": 50.9019177714498
 },
 {
   "zipCode": "01816",
   "name": "Bad Gottleuba",
   "longitude": 13.9656137628441,
   "latitude": 50.8298345463513
 },
 {
   "zipCode": "01819",
   "name": "Berggießhübel",
   "longitude": 13.9803886523367,
   "latitude": 50.881784945979
 },
 {
   "zipCode": "01824",
   "name": "Königstein / Sächsische Schweiz",
   "longitude": 14.0846392030175,
   "latitude": 50.8788255493473
 },
 {
   "zipCode": "01825",
   "name": "Liebstadt",
   "longitude": 13.8775206298858,
   "latitude": 50.8604595275301
 },
 {
   "zipCode": "01827",
   "name": "Graupa",
   "longitude": 13.9183895533832,
   "latitude": 50.9902835368459
 },
 {
   "zipCode": "01829",
   "name": "Stadt Wehlen",
   "longitude": 14.0107984899764,
   "latitude": 50.9614393090612
 },
 {
   "zipCode": "01833",
   "name": "Stolpen",
   "longitude": 14.0607858764795,
   "latitude": 51.0396792461695
 },
 {
   "zipCode": "01844",
   "name": "Neustadt in Sachsen",
   "longitude": 14.2269924483085,
   "latitude": 51.0358209294172
 },
 {
   "zipCode": "01847",
   "name": "Lohmen",
   "longitude": 14.0186319478249,
   "latitude": 50.9847555091057
 },
 {
   "zipCode": "01848",
   "name": "Hohnstein",
   "longitude": 14.1438042484719,
   "latitude": 50.9788387434272
 },
 {
   "zipCode": "01855",
   "name": "Sebnitz",
   "longitude": 14.2950195709521,
   "latitude": 50.9386350649986
 },
 {
   "zipCode": "01877",
   "name": "Bischofswerda",
   "longitude": 14.2040378831612,
   "latitude": 51.1251633418218
 },
 {
   "zipCode": "01896",
   "name": "Pulsnitz",
   "longitude": 14.0121693844565,
   "latitude": 51.1825198062342
 },
 {
   "zipCode": "01900",
   "name": "Großröhrsdorf",
   "longitude": 14.03375842408,
   "latitude": 51.1446271877288
 },
 {
   "zipCode": "01904",
   "name": "Neukirch / Lausitz",
   "longitude": 14.3276981957342,
   "latitude": 51.0804156053499
 },
 {
   "zipCode": "01906",
   "name": "Bischofswerda",
   "longitude": 14.2077463894613,
   "latitude": 51.1871408473025
 },
 {
   "zipCode": "01909",
   "name": "Großharthau",
   "longitude": 14.0820774273187,
   "latitude": 51.1085678698569
 },
 {
   "zipCode": "01917",
   "name": "Kamenz",
   "longitude": 14.1116269099331,
   "latitude": 51.2705080744543
 },
 {
   "zipCode": "01920",
   "name": "Deutschbaselitz",
   "longitude": 14.1565791843606,
   "latitude": 51.2693501643649
 },
 {
   "zipCode": "01936",
   "name": "Königsbrück",
   "longitude": 13.9378853726551,
   "latitude": 51.292203230091
 },
 {
   "zipCode": "01945",
   "name": "Ruhland",
   "longitude": 13.8797139131573,
   "latitude": 51.4253935388223
 },
 {
   "zipCode": "01968",
   "name": "Senftenberg",
   "longitude": 14.0254798344899,
   "latitude": 51.5211335699322
 },
 {
   "zipCode": "01979",
   "name": "Lauchhammer",
   "longitude": 13.7565048370695,
   "latitude": 51.5037294774548
 },
 {
   "zipCode": "01983",
   "name": "Großräschen",
   "longitude": 14.0516552208333,
   "latitude": 51.5843420382583
 },
 {
   "zipCode": "01987",
   "name": "Schwarzheide Niederlausitz",
   "longitude": 13.8569555558841,
   "latitude": 51.4828481886264
 },
 {
   "zipCode": "01990",
   "name": "Ortrand",
   "longitude": 13.7347367836667,
   "latitude": 51.3853070881689
 },
 {
   "zipCode": "01993",
   "name": "Schipkau",
   "longitude": 13.888210076256,
   "latitude": 51.5106519906471
 },
 {
   "zipCode": "01994",
   "name": "Annahütte",
   "longitude": 13.9241987551606,
   "latitude": 51.5805372058737
 },
 {
   "zipCode": "01996",
   "name": "Hosena",
   "longitude": 14.0337029399463,
   "latitude": 51.4590845820044
 },
 {
   "zipCode": "01998",
   "name": "Klettwitz",
   "longitude": 13.88636824897,
   "latitude": 51.542571315541
 },
 {
   "zipCode": "02625",
   "name": "Bautzen",
   "longitude": 14.4365868353327,
   "latitude": 51.185667039048
 },
 {
   "zipCode": "02627",
   "name": "Weißenberg",
   "longitude": 14.5210189319672,
   "latitude": 51.1870144256967
 },
 {
   "zipCode": "02633",
   "name": "Göda",
   "longitude": 14.3154107010876,
   "latitude": 51.1657477317624
 },
 {
   "zipCode": "02681",
   "name": "Wilthen",
   "longitude": 14.4170717630233,
   "latitude": 51.0904987506152
 },
 {
   "zipCode": "02689",
   "name": "Sohland an der Spree",
   "longitude": 14.4329030522057,
   "latitude": 51.0463985404994
 },
 {
   "zipCode": "02692",
   "name": "Obergurig",
   "longitude": 14.4193340078608,
   "latitude": 51.1335042068282
 },
 {
   "zipCode": "02694",
   "name": "Großdubrau",
   "longitude": 14.537486295937,
   "latitude": 51.263509210493
 },
 {
   "zipCode": "02699",
   "name": "Königswartha",
   "longitude": 14.3502824523528,
   "latitude": 51.2909424449011
 },
 {
   "zipCode": "02708",
   "name": "Löbau",
   "longitude": 14.6697479487381,
   "latitude": 51.0904319171108
 },
 {
   "zipCode": "02727",
   "name": "Neugersdorf",
   "longitude": 14.612798599227,
   "latitude": 50.9740627941025
 },
 {
   "zipCode": "02730",
   "name": "Ebersbach",
   "longitude": 14.6114148308632,
   "latitude": 51.0138119490906
 },
 {
   "zipCode": "02733",
   "name": "Cunewalde",
   "longitude": 14.5281582649865,
   "latitude": 51.0993958694855
 },
 {
   "zipCode": "02736",
   "name": "Oppach",
   "longitude": 14.5169828987071,
   "latitude": 51.0663183271913
 },
 {
   "zipCode": "02739",
   "name": "Eibau",
   "longitude": 14.6550703961587,
   "latitude": 50.9920097089402
 },
 {
   "zipCode": "02742",
   "name": "Neusalza-Spremberg",
   "longitude": 14.5457801319928,
   "latitude": 51.0313877036959
 },
 {
   "zipCode": "02744",
   "name": "Oberoderwitz",
   "longitude": 14.701194489249,
   "latitude": 50.9697136268045
 },
 {
   "zipCode": "02747",
   "name": "Herrnhut",
   "longitude": 14.7628115792269,
   "latitude": 51.010210638874
 },
 {
   "zipCode": "02748",
   "name": "Bernstadt",
   "longitude": 14.8308235048218,
   "latitude": 51.0473782661179
 },
 {
   "zipCode": "02763",
   "name": "Zittau",
   "longitude": 14.7868393700758,
   "latitude": 50.9087877353582
 },
 {
   "zipCode": "02779",
   "name": "Großschönau",
   "longitude": 14.6820187352162,
   "latitude": 50.9021905899615
 },
 {
   "zipCode": "02782",
   "name": "Seifhennersdorf",
   "longitude": 14.6088836183903,
   "latitude": 50.9360759135317
 },
 {
   "zipCode": "02785",
   "name": "Olbersdorf",
   "longitude": 14.765271521555,
   "latitude": 50.8730183755607
 },
 {
   "zipCode": "02788",
   "name": "Hirschfelde",
   "longitude": 14.8706601255607,
   "latitude": 50.9616452409436
 },
 {
   "zipCode": "02791",
   "name": "Niederoderwitz",
   "longitude": 14.7455244809583,
   "latitude": 50.9542996431919
 },
 {
   "zipCode": "02794",
   "name": "Leutersdorf",
   "longitude": 14.6622519416791,
   "latitude": 50.9475844742316
 },
 {
   "zipCode": "02796",
   "name": "Jonsdorf",
   "longitude": 14.6936276890278,
   "latitude": 50.8528709218412
 },
 {
   "zipCode": "02797",
   "name": "Oybin",
   "longitude": 14.7556214151635,
   "latitude": 50.8399718219569
 },
 {
   "zipCode": "02799",
   "name": "Waltersdorf",
   "longitude": 14.6486158737805,
   "latitude": 50.8645532743721
 },
 {
   "zipCode": "02826",
   "name": "Görlitz",
   "longitude": 14.9841912137216,
   "latitude": 51.1468640705067
 },
 {
   "zipCode": "02827",
   "name": "Görlitz",
   "longitude": 14.9644336570507,
   "latitude": 51.131700588211
 },
 {
   "zipCode": "02828",
   "name": "Görlitz",
   "longitude": 14.982757259718,
   "latitude": 51.169386005347
 },
 {
   "zipCode": "02829",
   "name": "Görlitz",
   "longitude": 14.9314445596608,
   "latitude": 51.1793133227497
 },
 {
   "zipCode": "02894",
   "name": "Reichenbach / Oberlausitz",
   "longitude": 14.7837970160583,
   "latitude": 51.1586210341871
 },
 {
   "zipCode": "02899",
   "name": "Görlitz",
   "longitude": 14.9155163330416,
   "latitude": 51.0413623584693
 },
 {
   "zipCode": "02906",
   "name": "Niesky",
   "longitude": 14.7199175414312,
   "latitude": 51.29686932838
 },
 {
   "zipCode": "02923",
   "name": "Niesky",
   "longitude": 14.8877498791934,
   "latitude": 51.3029904192752
 },
 {
   "zipCode": "02929",
   "name": "Rothenburg / Oberlausitz",
   "longitude": 14.9549174346342,
   "latitude": 51.3584395056961
 },
 {
   "zipCode": "02943",
   "name": "Weißwasser",
   "longitude": 14.6231366648455,
   "latitude": 51.4455327569972
 },
 {
   "zipCode": "02953",
   "name": "Bad Muskau",
   "longitude": 14.668792984739,
   "latitude": 51.5485347944777
 },
 {
   "zipCode": "02956",
   "name": "Rietschen",
   "longitude": 14.8071789258513,
   "latitude": 51.4101443347418
 },
 {
   "zipCode": "02957",
   "name": "Krauschwitz",
   "longitude": 14.7980059857637,
   "latitude": 51.4744440525675
 },
 {
   "zipCode": "02959",
   "name": "Schleife",
   "longitude": 14.5263426599706,
   "latitude": 51.5231251115797
 },
 {
   "zipCode": "02977",
   "name": "Hoyerswerda",
   "longitude": 14.2160050897591,
   "latitude": 51.4239640495388
 },
 {
   "zipCode": "02979",
   "name": "Hoyerswerda",
   "longitude": 14.4208851704129,
   "latitude": 51.4808044896124
 },
 {
   "zipCode": "02991",
   "name": "Lauta",
   "longitude": 14.1963095015949,
   "latitude": 51.4824187384614
 },
 {
   "zipCode": "02994",
   "name": "Bernsdorf",
   "longitude": 14.076081833467,
   "latitude": 51.384897512176
 },
 {
   "zipCode": "02997",
   "name": "Wittichenau",
   "longitude": 14.2456691320338,
   "latitude": 51.3803613459956
 },
 {
   "zipCode": "02999",
   "name": "Lohsa",
   "longitude": 14.4314779020423,
   "latitude": 51.3794218631087
 },
 {
   "zipCode": "03042",
   "name": "Cottbus",
   "longitude": 14.4173863028766,
   "latitude": 51.7758491985757
 },
 {
   "zipCode": "03044",
   "name": "Cottbus",
   "longitude": 14.3462668653205,
   "latitude": 51.7851954322445
 },
 {
   "zipCode": "03046",
   "name": "Cottbus",
   "longitude": 14.3105961699576,
   "latitude": 51.7642841051626
 },
 {
   "zipCode": "03048",
   "name": "Cottbus",
   "longitude": 14.3084496695284,
   "latitude": 51.7386575406352
 },
 {
   "zipCode": "03050",
   "name": "Cottbus",
   "longitude": 14.3428162204931,
   "latitude": 51.7338004398863
 },
 {
   "zipCode": "03051",
   "name": "Cottbus",
   "longitude": 14.4173519658731,
   "latitude": 51.7212475070751
 },
 {
   "zipCode": "03052",
   "name": "Cottbus",
   "longitude": 14.429363438563,
   "latitude": 51.7622304181986
 },
 {
   "zipCode": "03053",
   "name": "Cottbus",
   "longitude": 14.3899095323459,
   "latitude": 51.8050107551662
 },
 {
   "zipCode": "03054",
   "name": "Cottbus",
   "longitude": 14.3532943121108,
   "latitude": 51.8320174376614
 },
 {
   "zipCode": "03055",
   "name": "Cottbus",
   "longitude": 14.313416921196,
   "latitude": 51.814200467229
 },
 {
   "zipCode": "03058",
   "name": "Gallinchen",
   "longitude": 14.3905994367258,
   "latitude": 51.6951974057929
 },
 {
   "zipCode": "03096",
   "name": "Burg / Spreewald",
   "longitude": 14.2022775486531,
   "latitude": 51.8398236297927
 },
 {
   "zipCode": "03099",
   "name": "Kolkwitz",
   "longitude": 14.2029591073863,
   "latitude": 51.7541879060613
 },
 {
   "zipCode": "03103",
   "name": "Neupetershain",
   "longitude": 14.1242212424135,
   "latitude": 51.6263004105257
 },
 {
   "zipCode": "03116",
   "name": "Drebkau",
   "longitude": 14.2159936024012,
   "latitude": 51.6464926876213
 },
 {
   "zipCode": "03119",
   "name": "Welzow",
   "longitude": 14.1786551453494,
   "latitude": 51.5759831900948
 },
 {
   "zipCode": "03130",
   "name": "Spremberg",
   "longitude": 14.4285361926079,
   "latitude": 51.5920052162884
 },
 {
   "zipCode": "03139",
   "name": "Schwarze Pumpe",
   "longitude": 14.3242706344034,
   "latitude": 51.531349538805
 },
 {
   "zipCode": "03149",
   "name": "Forst / Lausitz",
   "longitude": 14.6080429265096,
   "latitude": 51.726184190725
 },
 {
   "zipCode": "03159",
   "name": "Döbern",
   "longitude": 14.6600872851445,
   "latitude": 51.6305296247609
 },
 {
   "zipCode": "03172",
   "name": "Guben",
   "longitude": 14.5761587483961,
   "latitude": 51.9595001517035
 },
 {
   "zipCode": "03185",
   "name": "Peitz",
   "longitude": 14.4152417815639,
   "latitude": 51.8779405940495
 },
 {
   "zipCode": "03197",
   "name": "Jänschwalde",
   "longitude": 14.5297330572813,
   "latitude": 51.8798303187555
 },
 {
   "zipCode": "03205",
   "name": "Calau",
   "longitude": 13.9487286548992,
   "latitude": 51.7280249390139
 },
 {
   "zipCode": "03222",
   "name": "Lübbenau / Spreewald",
   "longitude": 13.9276631924957,
   "latitude": 51.8541016396787
 },
 {
   "zipCode": "03226",
   "name": "Vetschau",
   "longitude": 14.0521859735019,
   "latitude": 51.8155505018191
 },
 {
   "zipCode": "03229",
   "name": "Altdöbern",
   "longitude": 14.0576959342314,
   "latitude": 51.6655994167392
 },
 {
   "zipCode": "03238",
   "name": "Finsterwalde",
   "longitude": 13.7177879378029,
   "latitude": 51.6008449442302
 },
 {
   "zipCode": "03246",
   "name": "Crinitz",
   "longitude": 13.7803983499336,
   "latitude": 51.7331039787029
 },
 {
   "zipCode": "03249",
   "name": "Sonnewalde",
   "longitude": 13.66779456204,
   "latitude": 51.7076077577057
 },
 {
   "zipCode": "03253",
   "name": "Doberlug-Kirchhain",
   "longitude": 13.500302391339,
   "latitude": 51.6401628467384
 },
 {
   "zipCode": "04103",
   "name": "Leipzig",
   "longitude": 12.393171634463,
   "latitude": 51.332993367659
 },
 {
   "zipCode": "04105",
   "name": "Leipzig",
   "longitude": 12.3615440257456,
   "latitude": 51.3532158481417
 },
 {
   "zipCode": "04107",
   "name": "Leipzig",
   "longitude": 12.3730717463847,
   "latitude": 51.3319369827246
 },
 {
   "zipCode": "04109",
   "name": "Leipzig",
   "longitude": 12.3662239114281,
   "latitude": 51.3401650247005
 },
 {
   "zipCode": "04129",
   "name": "Leipzig",
   "longitude": 12.3909879710159,
   "latitude": 51.3734807468274
 },
 {
   "zipCode": "04155",
   "name": "Leipzig",
   "longitude": 12.3628330267093,
   "latitude": 51.3628550951064
 },
 {
   "zipCode": "04157",
   "name": "Leipzig",
   "longitude": 12.3717511984241,
   "latitude": 51.3758698758593
 },
 {
   "zipCode": "04158",
   "name": "Leipzig",
   "longitude": 12.3717511984241,
   "latitude": 51.3758698758593
 },
 {
   "zipCode": "04159",
   "name": "Leipzig",
   "longitude": 12.3292220441593,
   "latitude": 51.3743049194689
 },
 {
   "zipCode": "04177",
   "name": "Leipzig",
   "longitude": 12.3344688082617,
   "latitude": 51.3409795431399
 },
 {
   "zipCode": "04178",
   "name": "Leipzig",
   "longitude": 12.263,
   "latitude": 51.3532
 },
 {
   "zipCode": "04179",
   "name": "Leipzig",
   "longitude": 12.3167739858808,
   "latitude": 51.3481006668968
 },
 {
   "zipCode": "04205",
   "name": "Leipzig",
   "longitude": 12.2736152868547,
   "latitude": 51.3272343390933
 },
 {
   "zipCode": "04207",
   "name": "Leipzig",
   "longitude": 12.2755323469935,
   "latitude": 51.3077370124942
 },
 {
   "zipCode": "04209",
   "name": "Leipzig",
   "longitude": 12.2989041810904,
   "latitude": 51.3222662708309
 },
 {
   "zipCode": "04229",
   "name": "Leipzig",
   "longitude": 12.3389412705666,
   "latitude": 51.3215175964767
 },
 {
   "zipCode": "04249",
   "name": "Leipzig",
   "longitude": 12.3145431203951,
   "latitude": 51.2877503441252
 },
 {
   "zipCode": "04275",
   "name": "Leipzig",
   "longitude": 12.3738452832566,
   "latitude": 51.3226214111902
 },
 {
   "zipCode": "04277",
   "name": "Leipzig",
   "longitude": 12.3725898920218,
   "latitude": 51.3077587079575
 },
 {
   "zipCode": "04279",
   "name": "Leipzig",
   "longitude": 12.4014143330105,
   "latitude": 51.294430853771
 },
 {
   "zipCode": "04288",
   "name": "Leipzig",
   "longitude": 12.4014143330105,
   "latitude": 51.294430853771
 },
 {
   "zipCode": "04289",
   "name": "Leipzig",
   "longitude": 12.4295352839182,
   "latitude": 51.301078473028
 },
 {
   "zipCode": "04299",
   "name": "Leipzig",
   "longitude": 12.4288304537393,
   "latitude": 51.319258618199
 },
 {
   "zipCode": "04315",
   "name": "Leipzig",
   "longitude": 12.4093019668461,
   "latitude": 51.3470546635018
 },
 {
   "zipCode": "04316",
   "name": "Leipzig",
   "longitude": 12.4093019668461,
   "latitude": 51.3470546635018
 },
 {
   "zipCode": "04317",
   "name": "Leipzig",
   "longitude": 12.4065008216017,
   "latitude": 51.3324690822652
 },
 {
   "zipCode": "04318",
   "name": "Leipzig",
   "longitude": 12.4298561094508,
   "latitude": 51.3426003738871
 },
 {
   "zipCode": "04319",
   "name": "Leipzig",
   "longitude": 12.4298561094508,
   "latitude": 51.3426003738871
 },
 {
   "zipCode": "04328",
   "name": "Leipzig",
   "longitude": 12.451879540918,
   "latitude": 51.3485458679045
 },
 {
   "zipCode": "04329",
   "name": "Leipzig",
   "longitude": 12.4682899135653,
   "latitude": 51.3591079869906
 },
 {
   "zipCode": "04347",
   "name": "Leipzig",
   "longitude": 12.4217583762459,
   "latitude": 51.361896953518
 },
 {
   "zipCode": "04349",
   "name": "Leipzig",
   "longitude": 12.4492022493611,
   "latitude": 51.3909661643052
 },
 {
   "zipCode": "04356",
   "name": "Leipzig",
   "longitude": 12.4401668557006,
   "latitude": 51.4212075374621
 },
 {
   "zipCode": "04357",
   "name": "Leipzig",
   "longitude": 12.4117985796606,
   "latitude": 51.3822076173024
 },
 {
   "zipCode": "04416",
   "name": "Markkleeberg",
   "longitude": 12.3889204344979,
   "latitude": 51.2687032993467
 },
 {
   "zipCode": "04420",
   "name": "Markranstädt",
   "longitude": 12.2211992218854,
   "latitude": 51.2891977911683
 },
 {
   "zipCode": "04425",
   "name": "Taucha",
   "longitude": 12.5114512111022,
   "latitude": 51.3920499932463
 },
 {
   "zipCode": "04430",
   "name": "Böhlitz-Ehrenberg",
   "longitude": 12.2432762354154,
   "latitude": 51.3559139206556
 },
 {
   "zipCode": "04435",
   "name": "Schkeuditz",
   "longitude": 12.2199350715792,
   "latitude": 51.4006268604343
 },
 {
   "zipCode": "04439",
   "name": "Engelsdorf",
   "longitude": 12.5055497926427,
   "latitude": 51.3314489469419
 },
 {
   "zipCode": "04442",
   "name": "Zwenkau",
   "longitude": 12.308936553491,
   "latitude": 51.2227253359244
 },
 {
   "zipCode": "04445",
   "name": "Markkleeberg",
   "longitude": 12.470837306257,
   "latitude": 51.2789146912471
 },
 {
   "zipCode": "04448",
   "name": "Wiederitzsch",
   "longitude": 12.3809155441796,
   "latitude": 51.4098623696945
 },
 {
   "zipCode": "04451",
   "name": "Borsdorf",
   "longitude": 12.5432044572604,
   "latitude": 51.3547810545218
 },
 {
   "zipCode": "04454",
   "name": "Holzhausen",
   "longitude": 12.476892296404,
   "latitude": 51.3048476214957
 },
 {
   "zipCode": "04457",
   "name": "Mölkau",
   "longitude": 12.4531538710731,
   "latitude": 51.330639183418
 },
 {
   "zipCode": "04460",
   "name": "Zwenkau",
   "longitude": 12.2242057057646,
   "latitude": 51.2182224390448
 },
 {
   "zipCode": "04463",
   "name": "Großpösna",
   "longitude": 12.4783958301848,
   "latitude": 51.2555931737753
 },
 {
   "zipCode": "04466",
   "name": "Lindenthal",
   "longitude": 12.336031348193,
   "latitude": 51.403189550099
 },
 {
   "zipCode": "04469",
   "name": "Lützschema-Stahmeln",
   "longitude": 12.2834931677938,
   "latitude": 51.3903864035007
 },
 {
   "zipCode": "04509",
   "name": "Delitzsch",
   "longitude": 12.3540893294459,
   "latitude": 51.5050963420478
 },
 {
   "zipCode": "04519",
   "name": "Rackwitz",
   "longitude": 12.3923988975717,
   "latitude": 51.4442215906216
 },
 {
   "zipCode": "04523",
   "name": "Pegau",
   "longitude": 12.2468769618758,
   "latitude": 51.1685102177171
 },
 {
   "zipCode": "04539",
   "name": "Groitzsch",
   "longitude": 12.3171424354412,
   "latitude": 51.1301585938282
 },
 {
   "zipCode": "04552",
   "name": "Borna",
   "longitude": 12.4892200608762,
   "latitude": 51.1274493774671
 },
 {
   "zipCode": "04564",
   "name": "Böhlen",
   "longitude": 12.3872102067848,
   "latitude": 51.2106912011367
 },
 {
   "zipCode": "04565",
   "name": "Regis-Breitingen",
   "longitude": 12.431013409662,
   "latitude": 51.0913633740767
 },
 {
   "zipCode": "04567",
   "name": "Kitzscher",
   "longitude": 12.5624933510742,
   "latitude": 51.1723485087927
 },
 {
   "zipCode": "04571",
   "name": "Rötha",
   "longitude": 12.4273861285881,
   "latitude": 51.2027935830858
 },
 {
   "zipCode": "04574",
   "name": "Neukieritzsch",
   "longitude": 12.4124975634588,
   "latitude": 51.1158147186552
 },
 {
   "zipCode": "04575",
   "name": "Neukieritzsch",
   "longitude": 12.3789753025592,
   "latitude": 51.1633050021571
 },
 {
   "zipCode": "04579",
   "name": "Espenhain",
   "longitude": 12.4993782702102,
   "latitude": 51.2091132783251
 },
 {
   "zipCode": "04600",
   "name": "Altenburg",
   "longitude": 12.4396082600746,
   "latitude": 50.9787274538803
 },
 {
   "zipCode": "04603",
   "name": "Altenburg",
   "longitude": 12.4643335989671,
   "latitude": 50.9600749230382
 },
 {
   "zipCode": "04610",
   "name": "Meuselwitz",
   "longitude": 12.3480752174873,
   "latitude": 51.0563331929355
 },
 {
   "zipCode": "04613",
   "name": "Lucka",
   "longitude": 12.3319712670842,
   "latitude": 51.0861728296777
 },
 {
   "zipCode": "04617",
   "name": "Altenburg",
   "longitude": 12.3652493877661,
   "latitude": 51.0151293766588
 },
 {
   "zipCode": "04618",
   "name": "Langenleuba-Niederhain",
   "longitude": 12.5770304718426,
   "latitude": 50.9502635485601
 },
 {
   "zipCode": "04626",
   "name": "Schmölln",
   "longitude": 12.3102455710081,
   "latitude": 50.8983785812604
 },
 {
   "zipCode": "04639",
   "name": "Gößnitz",
   "longitude": 12.4237710327968,
   "latitude": 50.873975112611
 },
 {
   "zipCode": "04643",
   "name": "Geithain",
   "longitude": 12.6507686344043,
   "latitude": 51.0831576094679
 },
 {
   "zipCode": "04651",
   "name": "Bad Lausick",
   "longitude": 12.6760064285766,
   "latitude": 51.1460850388363
 },
 {
   "zipCode": "04654",
   "name": "Frohburg",
   "longitude": 12.5596584922644,
   "latitude": 51.0627418347635
 },
 {
   "zipCode": "04655",
   "name": "Kohren-Sahlis",
   "longitude": 12.5913539425324,
   "latitude": 51.0138467393956
 },
 {
   "zipCode": "04657",
   "name": "Langensteinbach",
   "longitude": 12.6720050667348,
   "latitude": 50.9893938482057
 },
 {
   "zipCode": "04668",
   "name": "Grimma",
   "longitude": 12.7343133496508,
   "latitude": 51.2145485284711
 },
 {
   "zipCode": "04680",
   "name": "Colditz",
   "longitude": 12.8092978240245,
   "latitude": 51.1260307568365
 },
 {
   "zipCode": "04683",
   "name": "Naunhof",
   "longitude": 12.5767212896108,
   "latitude": 51.271758322968
 },
 {
   "zipCode": "04685",
   "name": "Nerchau",
   "longitude": 12.8190504023833,
   "latitude": 51.2766637362082
 },
 {
   "zipCode": "04687",
   "name": "Trebsen / Mulde",
   "longitude": 12.7313526360469,
   "latitude": 51.2877426957742
 },
 {
   "zipCode": "04688",
   "name": "Mutschen",
   "longitude": 12.8870621322598,
   "latitude": 51.26068719464
 },
 {
   "zipCode": "04703",
   "name": "Leisnig",
   "longitude": 12.9372759228576,
   "latitude": 51.1676366624669
 },
 {
   "zipCode": "04720",
   "name": "Döbeln",
   "longitude": 13.1185033523152,
   "latitude": 51.1417764579461
 },
 {
   "zipCode": "04736",
   "name": "Waldheim",
   "longitude": 13.0134829549687,
   "latitude": 51.0666189210948
 },
 {
   "zipCode": "04741",
   "name": "Roßwein",
   "longitude": 13.1791283247753,
   "latitude": 51.0796261264052
 },
 {
   "zipCode": "04746",
   "name": "Hartha",
   "longitude": 12.9902997556681,
   "latitude": 51.1134642496225
 },
 {
   "zipCode": "04749",
   "name": "Ostrau",
   "longitude": 13.1526608540259,
   "latitude": 51.2024772100378
 },
 {
   "zipCode": "04758",
   "name": "Oschatz",
   "longitude": 13.1215273735526,
   "latitude": 51.3452688946092
 },
 {
   "zipCode": "04769",
   "name": "Mügeln",
   "longitude": 13.0737737585398,
   "latitude": 51.2415697159446
 },
 {
   "zipCode": "04774",
   "name": "Dahlen",
   "longitude": 12.9853897466733,
   "latitude": 51.3683300150655
 },
 {
   "zipCode": "04779",
   "name": "Wermsdorf",
   "longitude": 12.9628263646574,
   "latitude": 51.2895993215411
 },
 {
   "zipCode": "04808",
   "name": "Wurzen",
   "longitude": 12.8063092816288,
   "latitude": 51.3900676989149
 },
 {
   "zipCode": "04821",
   "name": "Brandis",
   "longitude": 12.6282637944233,
   "latitude": 51.3266474063332
 },
 {
   "zipCode": "04824",
   "name": "Beucha",
   "longitude": 12.5684804330818,
   "latitude": 51.3216570428175
 },
 {
   "zipCode": "04827",
   "name": "Machern",
   "longitude": 12.6286765516949,
   "latitude": 51.3775615471981
 },
 {
   "zipCode": "04828",
   "name": "Bennewitz",
   "longitude": 12.7037063905749,
   "latitude": 51.344648409688
 },
 {
   "zipCode": "04838",
   "name": "Eilenburg",
   "longitude": 12.6860933859381,
   "latitude": 51.4957576734798
 },
 {
   "zipCode": "04849",
   "name": "Bad Düben",
   "longitude": 12.6461408917646,
   "latitude": 51.5960417380883
 },
 {
   "zipCode": "04860",
   "name": "Torgau",
   "longitude": 12.9709264250654,
   "latitude": 51.5409942774071
 },
 {
   "zipCode": "04861",
   "name": "Torgau",
   "longitude": 12.9709264250654,
   "latitude": 51.5409942774071
 },
 {
   "zipCode": "04874",
   "name": "Belgern",
   "longitude": 13.1238507788261,
   "latitude": 51.459498131359
 },
 {
   "zipCode": "04880",
   "name": "Dommitzsch",
   "longitude": 12.84978657406,
   "latitude": 51.6194880591067
 },
 {
   "zipCode": "04886",
   "name": "Torgau",
   "longitude": 13.0897450546123,
   "latitude": 51.573718086373
 },
 {
   "zipCode": "04889",
   "name": "Schildau",
   "longitude": 12.9658636074665,
   "latitude": 51.4555436832849
 },
 {
   "zipCode": "04895",
   "name": "Falkenberg / Elster",
   "longitude": 13.2064305376999,
   "latitude": 51.5876482814071
 },
 {
   "zipCode": "04910",
   "name": "Elsterwerda",
   "longitude": 13.5119239726314,
   "latitude": 51.4696576104114
 },
 {
   "zipCode": "04916",
   "name": "Herzberg / Elster",
   "longitude": 13.2453582251887,
   "latitude": 51.75956182998
 },
 {
   "zipCode": "04924",
   "name": "Bad Liebenwerda",
   "longitude": 13.3769215875885,
   "latitude": 51.516776631457
 },
 {
   "zipCode": "04928",
   "name": "Plessa",
   "longitude": 13.6409511234533,
   "latitude": 51.4633468918685
 },
 {
   "zipCode": "04931",
   "name": "Bad Liebenwerda",
   "longitude": 13.2531142656928,
   "latitude": 51.4269832652403
 },
 {
   "zipCode": "04932",
   "name": "Prösen",
   "longitude": 13.5668065114159,
   "latitude": 51.4155989172342
 },
 {
   "zipCode": "04934",
   "name": "Hohenleipisch",
   "longitude": 13.5687387535445,
   "latitude": 51.5082479987285
 },
 {
   "zipCode": "04936",
   "name": "Schlieben",
   "longitude": 13.4267493536179,
   "latitude": 51.7469427151217
 },
 {
   "zipCode": "04938",
   "name": "Uebigau",
   "longitude": 13.325906935149,
   "latitude": 51.607393122447
 },
 {
   "zipCode": "06108",
   "name": "Halle / Saale",
   "longitude": 11.9662475222527,
   "latitude": 51.4882414080261
 },
 {
   "zipCode": "06110",
   "name": "Halle / Saale",
   "longitude": 11.9742330961222,
   "latitude": 51.4726326143124
 },
 {
   "zipCode": "06112",
   "name": "Halle / Saale",
   "longitude": 11.9971805646992,
   "latitude": 51.4805757338108
 },
 {
   "zipCode": "06114",
   "name": "Halle / Saale",
   "longitude": 11.9696374791132,
   "latitude": 51.5002909621487
 },
 {
   "zipCode": "06116",
   "name": "Halle / Saale",
   "longitude": 12.0392046785579,
   "latitude": 51.4785704883763
 },
 {
   "zipCode": "06118",
   "name": "Halle / Saale",
   "longitude": 11.990138446183,
   "latitude": 51.5214070213509
 },
 {
   "zipCode": "06120",
   "name": "Halle / Saale",
   "longitude": 11.9019696090115,
   "latitude": 51.5084478826948
 },
 {
   "zipCode": "06122",
   "name": "Halle / Saale",
   "longitude": 11.9329853645139,
   "latitude": 51.4851179835922
 },
 {
   "zipCode": "06124",
   "name": "Halle / Saale",
   "longitude": 11.9352488488315,
   "latitude": 51.4705493587358
 },
 {
   "zipCode": "06126",
   "name": "Halle / Saale",
   "longitude": 11.9005915254274,
   "latitude": 51.4790839684832
 },
 {
   "zipCode": "06128",
   "name": "Halle / Saale",
   "longitude": 11.9485959958226,
   "latitude": 51.4509649775318
 },
 {
   "zipCode": "06130",
   "name": "Halle / Saale",
   "longitude": 11.9942544073096,
   "latitude": 51.4543689843495
 },
 {
   "zipCode": "06132",
   "name": "Halle / Saale",
   "longitude": 11.9909915623822,
   "latitude": 51.4269622846291
 },
 {
   "zipCode": "06179",
   "name": "Teutschenthal",
   "longitude": 11.8139981105672,
   "latitude": 51.4638797327049
 },
 {
   "zipCode": "06184",
   "name": "Dieskau",
   "longitude": 12.1022524904989,
   "latitude": 51.4201347959256
 },
 {
   "zipCode": "06188",
   "name": "Landsberg",
   "longitude": 12.1068075406033,
   "latitude": 51.529501803091
 },
 {
   "zipCode": "06193",
   "name": "Löbejün",
   "longitude": 11.9501465908287,
   "latitude": 51.6012625958585
 },
 {
   "zipCode": "06198",
   "name": "Wettin",
   "longitude": 11.8108763894801,
   "latitude": 51.5717482111287
 },
 {
   "zipCode": "06217",
   "name": "Merseburg / Saale",
   "longitude": 11.9861244920452,
   "latitude": 51.3222647097515
 },
 {
   "zipCode": "06231",
   "name": "Bad Dürrenberg",
   "longitude": 12.0978023873219,
   "latitude": 51.3049252300908
 },
 {
   "zipCode": "06237",
   "name": "Leuna",
   "longitude": 12.0143052819163,
   "latitude": 51.3078820485509
 },
 {
   "zipCode": "06242",
   "name": "Braunsbedra",
   "longitude": 11.890853094951,
   "latitude": 51.2897394659139
 },
 {
   "zipCode": "06246",
   "name": "Bad Lauchstädt",
   "longitude": 11.8728400853179,
   "latitude": 51.3821881311044
 },
 {
   "zipCode": "06249",
   "name": "Mücheln / Geiseltal",
   "longitude": 11.7990211903051,
   "latitude": 51.3044928984231
 },
 {
   "zipCode": "06254",
   "name": "Wallendorf / Luppe",
   "longitude": 12.1189412219016,
   "latitude": 51.3583904924102
 },
 {
   "zipCode": "06255",
   "name": "Schafstädt",
   "longitude": 11.7812863992652,
   "latitude": 51.3721559292173
 },
 {
   "zipCode": "06258",
   "name": "Schkopau",
   "longitude": 11.9818559613755,
   "latitude": 51.3960982543435
 },
 {
   "zipCode": "06259",
   "name": "Frankleben",
   "longitude": 11.9449057090502,
   "latitude": 51.3108756854775
 },
 {
   "zipCode": "06268",
   "name": "Querfurt",
   "longitude": 11.606452530147,
   "latitude": 51.3474147993435
 },
 {
   "zipCode": "06279",
   "name": "Schraplau",
   "longitude": 11.6254135734154,
   "latitude": 51.4303559915242
 },
 {
   "zipCode": "06295",
   "name": "Eisleben",
   "longitude": 11.58766671179,
   "latitude": 51.5193671789769
 },
 {
   "zipCode": "06308",
   "name": "Benndorf",
   "longitude": 11.4951777310338,
   "latitude": 51.579822286718
 },
 {
   "zipCode": "06311",
   "name": "Helbra",
   "longitude": 11.5021549269455,
   "latitude": 51.5559218166929
 },
 {
   "zipCode": "06313",
   "name": "Hergisdorf",
   "longitude": 11.4753952324519,
   "latitude": 51.5304013477177
 },
 {
   "zipCode": "06317",
   "name": "Röblingen am See",
   "longitude": 11.6798224413823,
   "latitude": 51.4744252201209
 },
 {
   "zipCode": "06318",
   "name": "Wansleben am See",
   "longitude": 11.7580358390738,
   "latitude": 51.4603754207704
 },
 {
   "zipCode": "06333",
   "name": "Hettstedt",
   "longitude": 11.4649124030939,
   "latitude": 51.6684161705108
 },
 {
   "zipCode": "06343",
   "name": "Mansfeld",
   "longitude": 11.4092992191018,
   "latitude": 51.5909570857805
 },
 {
   "zipCode": "06347",
   "name": "Gerbstedt",
   "longitude": 11.6623290479279,
   "latitude": 51.6222098945348
 },
 {
   "zipCode": "06348",
   "name": "Großörner",
   "longitude": 11.4868831348093,
   "latitude": 51.618269313772
 },
 {
   "zipCode": "06366",
   "name": "Köthen / Anhalt",
   "longitude": 11.9984793277858,
   "latitude": 51.7581528157269
 },
 {
   "zipCode": "06369",
   "name": "Köthen / Anhalt",
   "longitude": 11.987301136388,
   "latitude": 51.7384196634245
 },
 {
   "zipCode": "06385",
   "name": "Kleinzerbst",
   "longitude": 12.0570947419085,
   "latitude": 51.8470260774227
 },
 {
   "zipCode": "06386",
   "name": "Osternienburg",
   "longitude": 12.0878818893545,
   "latitude": 51.7779652009762
 },
 {
   "zipCode": "06388",
   "name": "Gröbzig",
   "longitude": 11.9292260899425,
   "latitude": 51.6854521672225
 },
 {
   "zipCode": "06406",
   "name": "Bernburg / Saale",
   "longitude": 11.746589834486,
   "latitude": 51.7973275374417
 },
 {
   "zipCode": "06408",
   "name": "Ilberstedt",
   "longitude": 11.7796486560128,
   "latitude": 51.7691922792176
 },
 {
   "zipCode": "06420",
   "name": "Könnern",
   "longitude": 11.7940203476863,
   "latitude": 51.6701348098005
 },
 {
   "zipCode": "06425",
   "name": "Alsleben / Saale",
   "longitude": 11.6731187212613,
   "latitude": 51.7085139533045
 },
 {
   "zipCode": "06429",
   "name": "Nienburg / Saale",
   "longitude": 11.7841742363704,
   "latitude": 51.8431311629708
 },
 {
   "zipCode": "06449",
   "name": "Aschersleben",
   "longitude": 11.4570419658436,
   "latitude": 51.800666041547
 },
 {
   "zipCode": "06456",
   "name": "Sandersleben",
   "longitude": 11.5604266863853,
   "latitude": 51.7006631812331
 },
 {
   "zipCode": "06458",
   "name": "Hedersleben",
   "longitude": 11.2864658999984,
   "latitude": 51.8643354848372
 },
 {
   "zipCode": "06463",
   "name": "Ermsleben",
   "longitude": 11.3254308956291,
   "latitude": 51.7310850877174
 },
 {
   "zipCode": "06464",
   "name": "Frose",
   "longitude": 11.3768219374139,
   "latitude": 51.789542149262
 },
 {
   "zipCode": "06466",
   "name": "Gatersleben",
   "longitude": 11.2927550373405,
   "latitude": 51.8166306138066
 },
 {
   "zipCode": "06467",
   "name": "Hoym",
   "longitude": 11.3088211287465,
   "latitude": 51.7840074947777
 },
 {
   "zipCode": "06469",
   "name": "Nachterstedt",
   "longitude": 11.3733715263156,
   "latitude": 51.8145373405862
 },
 {
   "zipCode": "06484",
   "name": "Quedlinburg",
   "longitude": 11.1543823658707,
   "latitude": 51.8043893812344
 },
 {
   "zipCode": "06485",
   "name": "Quedlinburg",
   "longitude": 11.1543823658707,
   "latitude": 51.8043893812344
 },
 {
   "zipCode": "06493",
   "name": "Ballenstedt",
   "longitude": 11.1706177155339,
   "latitude": 51.6600469678918
 },
 {
   "zipCode": "06502",
   "name": "Thale / Harz",
   "longitude": 11.0481819705911,
   "latitude": 51.7523552271514
 },
 {
   "zipCode": "06507",
   "name": "Gernrode",
   "longitude": 11.0649794436773,
   "latitude": 51.6907470524146
 },
 {
   "zipCode": "06526",
   "name": "Sangerhausen",
   "longitude": 11.2939507611881,
   "latitude": 51.473432124833
 },
 {
   "zipCode": "06528",
   "name": "Wallhausen",
   "longitude": 11.2879073715998,
   "latitude": 51.4901450948996
 },
 {
   "zipCode": "06536",
   "name": "Roßla",
   "longitude": 11.0730338735781,
   "latitude": 51.5058205670487
 },
 {
   "zipCode": "06537",
   "name": "Kelbra / Kyffhäuser",
   "longitude": 11.0945868308912,
   "latitude": 51.4320753913474
 },
 {
   "zipCode": "06542",
   "name": "Allstedt",
   "longitude": 11.4180573953223,
   "latitude": 51.4113349122114
 },
 {
   "zipCode": "06543",
   "name": "Wippra",
   "longitude": 11.2894199199643,
   "latitude": 51.622475044779
 },
 {
   "zipCode": "06547",
   "name": "Stolberg / Harz",
   "longitude": 10.9749686559181,
   "latitude": 51.5834436428758
 },
 {
   "zipCode": "06548",
   "name": "Rottleberode",
   "longitude": 10.9889498313129,
   "latitude": 51.5199227397072
 },
 {
   "zipCode": "06556",
   "name": "Artern / Unstrut",
   "longitude": 11.2935534798108,
   "latitude": 51.3636252746143
 },
 {
   "zipCode": "06567",
   "name": "Bad Frankenhausen / Kyffhäuser",
   "longitude": 11.0879619417191,
   "latitude": 51.3650491363353
 },
 {
   "zipCode": "06571",
   "name": "Roßleben",
   "longitude": 11.3859723492902,
   "latitude": 51.2950620729582
 },
 {
   "zipCode": "06577",
   "name": "Heldrungen",
   "longitude": 11.2408652706642,
   "latitude": 51.2811828757022
 },
 {
   "zipCode": "06578",
   "name": "Oldisleben",
   "longitude": 11.1318992746778,
   "latitude": 51.3006308743297
 },
 {
   "zipCode": "06618",
   "name": "Naumburg / Saale",
   "longitude": 11.8245552903681,
   "latitude": 51.1286073248373
 },
 {
   "zipCode": "06628",
   "name": "Bad Kösen",
   "longitude": 11.6943713143845,
   "latitude": 51.1295151109419
 },
 {
   "zipCode": "06632",
   "name": "Freyburg / Unstrut",
   "longitude": 11.7672176123783,
   "latitude": 51.2369895681938
 },
 {
   "zipCode": "06636",
   "name": "Laucha / Unstrut",
   "longitude": 11.6617227593663,
   "latitude": 51.2261767294874
 },
 {
   "zipCode": "06638",
   "name": "Karsdorf",
   "longitude": 11.6383744807334,
   "latitude": 51.2760350488671
 },
 {
   "zipCode": "06642",
   "name": "Nebra / Unstrut",
   "longitude": 11.5281018263304,
   "latitude": 51.2627288933697
 },
 {
   "zipCode": "06647",
   "name": "Bad Bibra",
   "longitude": 11.5447751177798,
   "latitude": 51.1956955579926
 },
 {
   "zipCode": "06648",
   "name": "Eckartsberga",
   "longitude": 11.5265251535704,
   "latitude": 51.1332510026029
 },
 {
   "zipCode": "06667",
   "name": "Weißenfels",
   "longitude": 11.939570549929,
   "latitude": 51.1959139171483
 },
 {
   "zipCode": "06679",
   "name": "Hohenmölsen",
   "longitude": 12.1120382637312,
   "latitude": 51.1715427545215
 },
 {
   "zipCode": "06682",
   "name": "Teuchern",
   "longitude": 12.0246061931873,
   "latitude": 51.1286299613915
 },
 {
   "zipCode": "06686",
   "name": "Lützen",
   "longitude": 12.1208279019383,
   "latitude": 51.2340742906798
 },
 {
   "zipCode": "06688",
   "name": "Großkorbetha",
   "longitude": 12.0224725718048,
   "latitude": 51.2615221848623
 },
 {
   "zipCode": "06712",
   "name": "Zeitz",
   "longitude": 12.1326542565044,
   "latitude": 51.0313420535447
 },
 {
   "zipCode": "06721",
   "name": "Osterfeld",
   "longitude": 11.9567766062684,
   "latitude": 51.0735432708229
 },
 {
   "zipCode": "06722",
   "name": "Droyßig",
   "longitude": 11.9963730588227,
   "latitude": 51.0299535839097
 },
 {
   "zipCode": "06724",
   "name": "Kayna",
   "longitude": 12.1853213840226,
   "latitude": 51.0059806082067
 },
 {
   "zipCode": "06725",
   "name": "Profen",
   "longitude": 12.1979214119735,
   "latitude": 51.1246495535012
 },
 {
   "zipCode": "06727",
   "name": "Theißen",
   "longitude": 12.1163979417598,
   "latitude": 51.0982289068342
 },
 {
   "zipCode": "06729",
   "name": "Tröglitz",
   "longitude": 12.225343616854,
   "latitude": 51.0672322383968
 },
 {
   "zipCode": "06749",
   "name": "Bitterfeld",
   "longitude": 12.3570996288414,
   "latitude": 51.6232517942516
 },
 {
   "zipCode": "06766",
   "name": "Wolfen",
   "longitude": 12.2414476061813,
   "latitude": 51.6705321023532
 },
 {
   "zipCode": "06772",
   "name": "Gräfenhainichen",
   "longitude": 12.5112298557344,
   "latitude": 51.740023407907
 },
 {
   "zipCode": "06773",
   "name": "Gräfenhainichen",
   "longitude": 12.5112298557344,
   "latitude": 51.740023407907
 },
 {
   "zipCode": "06774",
   "name": "Pouch",
   "longitude": 12.527760808465,
   "latitude": 51.6423467925274
 },
 {
   "zipCode": "06779",
   "name": "Dessau",
   "longitude": 12.2517728510694,
   "latitude": 51.7313459169875
 },
 {
   "zipCode": "06780",
   "name": "Zörbig",
   "longitude": 12.1293939682895,
   "latitude": 51.6256289737216
 },
 {
   "zipCode": "06785",
   "name": "Oranienbaum",
   "longitude": 12.4247286008481,
   "latitude": 51.8009298605094
 },
 {
   "zipCode": "06786",
   "name": "Vockerode",
   "longitude": 12.4222602640289,
   "latitude": 51.8462977080974
 },
 {
   "zipCode": "06791",
   "name": "Zschornewitz",
   "longitude": 12.3804066567452,
   "latitude": 51.7278688472326
 },
 {
   "zipCode": "06792",
   "name": "Sandersdorf",
   "longitude": 12.2589548582211,
   "latitude": 51.6311039991786
 },
 {
   "zipCode": "06794",
   "name": "Zscherndorf",
   "longitude": 12.2214159224884,
   "latitude": 51.6027321342761
 },
 {
   "zipCode": "06796",
   "name": "Brehna",
   "longitude": 12.2064874810512,
   "latitude": 51.5612254852392
 },
 {
   "zipCode": "06800",
   "name": "Jeßnitz",
   "longitude": 12.3263162731707,
   "latitude": 51.68465567602
 },
 {
   "zipCode": "06803",
   "name": "Greppin",
   "longitude": 12.2962013488615,
   "latitude": 51.6518816778899
 },
 {
   "zipCode": "06804",
   "name": "Muldenstein",
   "longitude": 12.385874363235,
   "latitude": 51.6748285393591
 },
 {
   "zipCode": "06808",
   "name": "Holzweißig",
   "longitude": 12.3350819980435,
   "latitude": 51.5981126893487
 },
 {
   "zipCode": "06809",
   "name": "Roitzsch",
   "longitude": 12.2770356872009,
   "latitude": 51.5809081580122
 },
 {
   "zipCode": "06842",
   "name": "Dessau",
   "longitude": 12.3036968731842,
   "latitude": 51.791176430644
 },
 {
   "zipCode": "06844",
   "name": "Dessau",
   "longitude": 12.2738218121756,
   "latitude": 51.8527522723214
 },
 {
   "zipCode": "06846",
   "name": "Dessau",
   "longitude": 12.1854512725513,
   "latitude": 51.8489294621642
 },
 {
   "zipCode": "06847",
   "name": "Dessau",
   "longitude": 12.1920974697973,
   "latitude": 51.7973093727484
 },
 {
   "zipCode": "06849",
   "name": "Dessau",
   "longitude": 12.2597617131324,
   "latitude": 51.7998838363924
 },
 {
   "zipCode": "06861",
   "name": "Dessau-Roßlau",
   "longitude": 12.2597617131324,
   "latitude": 51.7998838363924
 },
 {
   "zipCode": "06862",
   "name": "Roßlau / Elbe",
   "longitude": 12.3133850951095,
   "latitude": 51.9540485850399
 },
 {
   "zipCode": "06869",
   "name": "Coswig / Anhalt",
   "longitude": 12.4589177436279,
   "latitude": 51.9261098408206
 },
 {
   "zipCode": "06886",
   "name": "Wittenberg",
   "longitude": 12.6184971831313,
   "latitude": 51.8711897739943
 },
 {
   "zipCode": "06888",
   "name": "Wittenberg",
   "longitude": 12.713090924558,
   "latitude": 51.8611747546491
 },
 {
   "zipCode": "06889",
   "name": "Wittenberg",
   "longitude": 12.713090924558,
   "latitude": 51.8611747546491
 },
 {
   "zipCode": "06895",
   "name": "Zahna",
   "longitude": 12.7642874164663,
   "latitude": 51.9388458174877
 },
 {
   "zipCode": "06896",
   "name": "Wittenberg",
   "longitude": 12.6247672508236,
   "latitude": 51.9499748642697
 },
 {
   "zipCode": "06901",
   "name": "Kemberg",
   "longitude": 12.6957356792577,
   "latitude": 51.7751851831519
 },
 {
   "zipCode": "06905",
   "name": "Bad Schmiedeberg",
   "longitude": 12.7119564477929,
   "latitude": 51.6957477647318
 },
 {
   "zipCode": "06909",
   "name": "Pretzsch / Elbe",
   "longitude": 12.7827917505715,
   "latitude": 51.7273432616097
 },
 {
   "zipCode": "06917",
   "name": "Jessen / Elster",
   "longitude": 12.9570113944388,
   "latitude": 51.8065586402059
 },
 {
   "zipCode": "06918",
   "name": "Elster / Elbe",
   "longitude": 12.8885805026894,
   "latitude": 51.8748029947278
 },
 {
   "zipCode": "06922",
   "name": "Prettin",
   "longitude": 12.9241647127707,
   "latitude": 51.6946966182531
 },
 {
   "zipCode": "06925",
   "name": "Annaburg",
   "longitude": 13.0687192153067,
   "latitude": 51.7137341256633
 },
 {
   "zipCode": "06926",
   "name": "Holzdorf",
   "longitude": 13.1250916855999,
   "latitude": 51.7943816084288
 },
 {
   "zipCode": "06928",
   "name": "Jessen / Elster",
   "longitude": 13.1196739134638,
   "latitude": 51.8650516869313
 },
 {
   "zipCode": "07318",
   "name": "Saalfeld / Saale",
   "longitude": 11.3299744091449,
   "latitude": 50.6259351262563
 },
 {
   "zipCode": "07330",
   "name": "Probstzella",
   "longitude": 11.3847435908755,
   "latitude": 50.552677052717
 },
 {
   "zipCode": "07333",
   "name": "Unterwellenborn",
   "longitude": 11.430360854678,
   "latitude": 50.6810743085035
 },
 {
   "zipCode": "07334",
   "name": "Kamsdorf",
   "longitude": 11.4722251306449,
   "latitude": 50.6347826082225
 },
 {
   "zipCode": "07336",
   "name": "Könitz",
   "longitude": 11.4895586209716,
   "latitude": 50.6611125303224
 },
 {
   "zipCode": "07338",
   "name": "Kaulsdorf",
   "longitude": 11.4943261047182,
   "latitude": 50.5846497035097
 },
 {
   "zipCode": "07343",
   "name": "Wurzbach",
   "longitude": 11.5195667360178,
   "latitude": 50.4472988626744
 },
 {
   "zipCode": "07349",
   "name": "Lehesten",
   "longitude": 11.4575214694023,
   "latitude": 50.4695950725703
 },
 {
   "zipCode": "07356",
   "name": "Lobenstein. Moorbad",
   "longitude": 11.5935206223689,
   "latitude": 50.4849812347115
 },
 {
   "zipCode": "07366",
   "name": "Lobenstein. Moorbad",
   "longitude": 11.6743854549961,
   "latitude": 50.4156560299454
 },
 {
   "zipCode": "07368",
   "name": "Ebersdorf / Thüringen",
   "longitude": 11.6586090320888,
   "latitude": 50.5236118750782
 },
 {
   "zipCode": "07381",
   "name": "Pößneck",
   "longitude": 11.6011003167057,
   "latitude": 50.7061155152272
 },
 {
   "zipCode": "07387",
   "name": "Krölpa",
   "longitude": 11.520159278719,
   "latitude": 50.6718316758634
 },
 {
   "zipCode": "07389",
   "name": "Ranis",
   "longitude": 11.6264883980434,
   "latitude": 50.6480175319359
 },
 {
   "zipCode": "07407",
   "name": "Rudolstadt",
   "longitude": 11.3478176538805,
   "latitude": 50.7553776363662
 },
 {
   "zipCode": "07422",
   "name": "Bad Blankenburg",
   "longitude": 11.2066910822377,
   "latitude": 50.685770564439
 },
 {
   "zipCode": "07426",
   "name": "Königsee",
   "longitude": 11.1102476717725,
   "latitude": 50.6552540085181
 },
 {
   "zipCode": "07427",
   "name": "Schwarzburg",
   "longitude": 11.199640691106,
   "latitude": 50.647750625862
 },
 {
   "zipCode": "07429",
   "name": "Sitzendorf",
   "longitude": 11.2073748719122,
   "latitude": 50.6161408495569
 },
 {
   "zipCode": "07545",
   "name": "Gera",
   "longitude": 12.0867795903403,
   "latitude": 50.8812552246626
 },
 {
   "zipCode": "07546",
   "name": "Gera",
   "longitude": 12.1015615456598,
   "latitude": 50.887634357804
 },
 {
   "zipCode": "07548",
   "name": "Gera",
   "longitude": 12.0430157263032,
   "latitude": 50.8768343494099
 },
 {
   "zipCode": "07549",
   "name": "Gera",
   "longitude": 12.0620557984077,
   "latitude": 50.8401766346874
 },
 {
   "zipCode": "07551",
   "name": "Gera",
   "longitude": 12.1126783705392,
   "latitude": 50.8368658890013
 },
 {
   "zipCode": "07552",
   "name": "Gera",
   "longitude": 12.0647272901622,
   "latitude": 50.9183036886093
 },
 {
   "zipCode": "07554",
   "name": "Gera",
   "longitude": 12.1310597359673,
   "latitude": 50.9248567967924
 },
 {
   "zipCode": "07557",
   "name": "Gera",
   "longitude": 12.0126290459413,
   "latitude": 50.8220779403262
 },
 {
   "zipCode": "07558",
   "name": "Töppeln",
   "longitude": 12.0030940629166,
   "latitude": 50.8979614171369
 },
 {
   "zipCode": "07570",
   "name": "Weida",
   "longitude": 12.0273664791665,
   "latitude": 50.7721363654503
 },
 {
   "zipCode": "07580",
   "name": "Ronneburg",
   "longitude": 12.2111705983277,
   "latitude": 50.8387210714108
 },
 {
   "zipCode": "07586",
   "name": "Bad Köstritz",
   "longitude": 11.965453784803,
   "latitude": 50.90616263298
 },
 {
   "zipCode": "07589",
   "name": "Münchenbernsdorf",
   "longitude": 11.9364425587913,
   "latitude": 50.833556135822
 },
 {
   "zipCode": "07607",
   "name": "Eisenberg",
   "longitude": 11.8845787564917,
   "latitude": 50.9657724699035
 },
 {
   "zipCode": "07613",
   "name": "Krossen / Elster",
   "longitude": 11.9411090731559,
   "latitude": 50.989526523504
 },
 {
   "zipCode": "07616",
   "name": "Bürgel",
   "longitude": 11.7798712236149,
   "latitude": 50.9557040800003
 },
 {
   "zipCode": "07619",
   "name": "Schkölen",
   "longitude": 11.8159735836736,
   "latitude": 51.0218670199036
 },
 {
   "zipCode": "07629",
   "name": "Hermsdorf",
   "longitude": 11.85939050461,
   "latitude": 50.8754364341252
 },
 {
   "zipCode": "07639",
   "name": "Bad Klosterlausnitz",
   "longitude": 11.8803540643462,
   "latitude": 50.9214662783369
 },
 {
   "zipCode": "07646",
   "name": "Stadtroda",
   "longitude": 11.7530464179552,
   "latitude": 50.8469779924126
 },
 {
   "zipCode": "07743",
   "name": "Jena",
   "longitude": 11.5991979164673,
   "latitude": 50.9525831163874
 },
 {
   "zipCode": "07745",
   "name": "Jena",
   "longitude": 11.5645155260795,
   "latitude": 50.9080082942493
 },
 {
   "zipCode": "07747",
   "name": "Jena",
   "longitude": 11.6129105442311,
   "latitude": 50.8901302877122
 },
 {
   "zipCode": "07749",
   "name": "Jena",
   "longitude": 11.6152308281228,
   "latitude": 50.9234851356731
 },
 {
   "zipCode": "07751",
   "name": "Jena",
   "longitude": 11.58303165039,
   "latitude": 50.902514995611
 },
 {
   "zipCode": "07768",
   "name": "Kahla",
   "longitude": 11.5517106898604,
   "latitude": 50.8010541574023
 },
 {
   "zipCode": "07774",
   "name": "Camburg",
   "longitude": 11.7232552069721,
   "latitude": 51.0401769689154
 },
 {
   "zipCode": "07778",
   "name": "Dorndorf-Steudnitz",
   "longitude": 11.6538423595465,
   "latitude": 50.99680468923
 },
 {
   "zipCode": "07806",
   "name": "Neustadt / Orla",
   "longitude": 11.7357384649495,
   "latitude": 50.7241073410755
 },
 {
   "zipCode": "07819",
   "name": "Triptis",
   "longitude": 11.8341410845468,
   "latitude": 50.7401591255581
 },
 {
   "zipCode": "07907",
   "name": "Schleiz",
   "longitude": 11.8155778004631,
   "latitude": 50.5942709690231
 },
 {
   "zipCode": "07919",
   "name": "Schleiz",
   "longitude": 11.9109553943808,
   "latitude": 50.5481104601518
 },
 {
   "zipCode": "07922",
   "name": "Tanna",
   "longitude": 11.8613639912742,
   "latitude": 50.4904383769769
 },
 {
   "zipCode": "07924",
   "name": "Ziegenrück",
   "longitude": 11.7125047996814,
   "latitude": 50.6063828529521
 },
 {
   "zipCode": "07926",
   "name": "Gefell",
   "longitude": 11.825190848082,
   "latitude": 50.4464677919037
 },
 {
   "zipCode": "07927",
   "name": "Hirschberg",
   "longitude": 11.8168541799613,
   "latitude": 50.421965474658
 },
 {
   "zipCode": "07929",
   "name": "Saalburg",
   "longitude": 11.7506218754476,
   "latitude": 50.5040557408063
 },
 {
   "zipCode": "07937",
   "name": "Zeulenroda",
   "longitude": 11.9862374645373,
   "latitude": 50.6364969052911
 },
 {
   "zipCode": "07950",
   "name": "Triebes",
   "longitude": 11.9996822910413,
   "latitude": 50.6989939289957
 },
 {
   "zipCode": "07952",
   "name": "Pausa / Vogtland",
   "longitude": 12.0128972845541,
   "latitude": 50.5846903778175
 },
 {
   "zipCode": "07955",
   "name": "Auma",
   "longitude": 11.9057915331088,
   "latitude": 50.7021345478783
 },
 {
   "zipCode": "07957",
   "name": "Langenwetzendorf",
   "longitude": 12.1045750748333,
   "latitude": 50.6731188627181
 },
 {
   "zipCode": "07958",
   "name": "Hohenleuben",
   "longitude": 12.0547913273412,
   "latitude": 50.7115698097412
 },
 {
   "zipCode": "07973",
   "name": "Greiz",
   "longitude": 12.1959335707288,
   "latitude": 50.6577674739626
 },
 {
   "zipCode": "07980",
   "name": "Berga / Elster",
   "longitude": 12.1514906395221,
   "latitude": 50.7401807475254
 },
 {
   "zipCode": "07985",
   "name": "Elsterberg",
   "longitude": 12.1490982489236,
   "latitude": 50.6074070942332
 },
 {
   "zipCode": "07987",
   "name": "Mohlsdorf",
   "longitude": 12.2707660366772,
   "latitude": 50.6786460778154
 },
 {
   "zipCode": "07989",
   "name": "Teichwolframsdorf",
   "longitude": 12.2277972678638,
   "latitude": 50.7275813460746
 },
 {
   "zipCode": "08056",
   "name": "Zwickau",
   "longitude": 12.486863749973,
   "latitude": 50.7070949223661
 },
 {
   "zipCode": "08058",
   "name": "Zwickau",
   "longitude": 12.4732938708401,
   "latitude": 50.7434160498603
 },
 {
   "zipCode": "08060",
   "name": "Zwickau",
   "longitude": 12.446934771112,
   "latitude": 50.7254479686663
 },
 {
   "zipCode": "08062",
   "name": "Zwickau",
   "longitude": 12.4694099890743,
   "latitude": 50.6954720638055
 },
 {
   "zipCode": "08064",
   "name": "Zwickau",
   "longitude": 12.4741064460124,
   "latitude": 50.6699308964447
 },
 {
   "zipCode": "08066",
   "name": "Zwickau",
   "longitude": 12.5281236823179,
   "latitude": 50.7294977177248
 },
 {
   "zipCode": "08107",
   "name": "Kirchberg",
   "longitude": 12.524903811567,
   "latitude": 50.5997089450946
 },
 {
   "zipCode": "08112",
   "name": "Wilkau-Haßlau",
   "longitude": 12.5165811126253,
   "latitude": 50.6672621649902
 },
 {
   "zipCode": "08115",
   "name": "Lichtentanne",
   "longitude": 12.4161417134645,
   "latitude": 50.6803569278233
 },
 {
   "zipCode": "08118",
   "name": "Hartenstein",
   "longitude": 12.672409328799,
   "latitude": 50.6721234550497
 },
 {
   "zipCode": "08121",
   "name": "Wiesenburg",
   "longitude": 12.5661580905752,
   "latitude": 50.6587648798226
 },
 {
   "zipCode": "08124",
   "name": "Cainsdorf",
   "longitude": 12.4955961848419,
   "latitude": 50.6747576309374
 },
 {
   "zipCode": "08129",
   "name": "Mosel",
   "longitude": 12.4804784415366,
   "latitude": 50.769930215282
 },
 {
   "zipCode": "08132",
   "name": "Mülsen Sankt Jacob",
   "longitude": 12.5822818420749,
   "latitude": 50.7431293722002
 },
 {
   "zipCode": "08134",
   "name": "Langenbach",
   "longitude": 12.6071724553909,
   "latitude": 50.6498618562331
 },
 {
   "zipCode": "08138",
   "name": "Thurm",
   "longitude": 12.5350671223928,
   "latitude": 50.7744438698686
 },
 {
   "zipCode": "08141",
   "name": "Reinsdorf",
   "longitude": 12.5620258467453,
   "latitude": 50.7010919153192
 },
 {
   "zipCode": "08144",
   "name": "Ebersbrunn",
   "longitude": 12.4537821126743,
   "latitude": 50.6384622179008
 },
 {
   "zipCode": "08146",
   "name": "Ortmannsdorf",
   "longitude": 12.6138453304008,
   "latitude": 50.7146705241455
 },
 {
   "zipCode": "08147",
   "name": "Crinitzberg",
   "longitude": 12.5017820560612,
   "latitude": 50.5726264148723
 },
 {
   "zipCode": "08149",
   "name": "Vielau",
   "longitude": 12.5486461783056,
   "latitude": 50.6823937888668
 },
 {
   "zipCode": "08209",
   "name": "Auerbach / Vogtland",
   "longitude": 12.4175172040978,
   "latitude": 50.490605793024
 },
 {
   "zipCode": "08223",
   "name": "Falkenstein / Vogtland",
   "longitude": 12.3550336030861,
   "latitude": 50.4430691570352
 },
 {
   "zipCode": "08228",
   "name": "Rodewisch",
   "longitude": 12.4262198012763,
   "latitude": 50.541850654435
 },
 {
   "zipCode": "08233",
   "name": "Treuen",
   "longitude": 12.3045293685056,
   "latitude": 50.5416225742726
 },
 {
   "zipCode": "08236",
   "name": "Ellefeld",
   "longitude": 12.3888085420852,
   "latitude": 50.4822713758959
 },
 {
   "zipCode": "08237",
   "name": "Steinberg",
   "longitude": 12.488071628113,
   "latitude": 50.5405166645188
 },
 {
   "zipCode": "08239",
   "name": "Bergen",
   "longitude": 12.2970321759247,
   "latitude": 50.4834749327399
 },
 {
   "zipCode": "08248",
   "name": "Klingenthal / Sachsen",
   "longitude": 12.4694300457428,
   "latitude": 50.3874652993947
 },
 {
   "zipCode": "08258",
   "name": "Markneukirchen",
   "longitude": 12.3332466743015,
   "latitude": 50.3075436069232
 },
 {
   "zipCode": "08261",
   "name": "Schöneck / Vogtland",
   "longitude": 12.3302626150211,
   "latitude": 50.3919346549638
 },
 {
   "zipCode": "08262",
   "name": "Tannenbergsthal / Vogtland",
   "longitude": 12.5097482638738,
   "latitude": 50.4297289379388
 },
 {
   "zipCode": "08265",
   "name": "Erlbach",
   "longitude": 12.3863286698248,
   "latitude": 50.3173301282003
 },
 {
   "zipCode": "08267",
   "name": "Zwota",
   "longitude": 12.4120971669422,
   "latitude": 50.3616359200149
 },
 {
   "zipCode": "08269",
   "name": "Hammerbrücke",
   "longitude": 12.4247297491474,
   "latitude": 50.435334631793
 },
 {
   "zipCode": "08280",
   "name": "Aue",
   "longitude": 12.695325019294,
   "latitude": 50.5916917300756
 },
 {
   "zipCode": "08289",
   "name": "Schneeberg",
   "longitude": 12.621056157556,
   "latitude": 50.5936306884689
 },
 {
   "zipCode": "08294",
   "name": "Lößnitz",
   "longitude": 12.7495759934588,
   "latitude": 50.6266225016488
 },
 {
   "zipCode": "08297",
   "name": "Zwönitz",
   "longitude": 12.8154041759413,
   "latitude": 50.6336643514439
 },
 {
   "zipCode": "08301",
   "name": "Schlema",
   "longitude": 12.6645371972865,
   "latitude": 50.6173198119268
 },
 {
   "zipCode": "08304",
   "name": "Schönheide",
   "longitude": 12.5181132156025,
   "latitude": 50.5011718277378
 },
 {
   "zipCode": "08309",
   "name": "Eibenstock",
   "longitude": 12.6095540779127,
   "latitude": 50.4739556406081
 },
 {
   "zipCode": "08312",
   "name": "Lauter / Sachsen",
   "longitude": 12.7250955869306,
   "latitude": 50.5542937674015
 },
 {
   "zipCode": "08315",
   "name": "Bernsbach",
   "longitude": 12.7643359942988,
   "latitude": 50.5825687383669
 },
 {
   "zipCode": "08318",
   "name": "Hundshübel",
   "longitude": 12.5898439245185,
   "latitude": 50.5428595041894
 },
 {
   "zipCode": "08321",
   "name": "Zschorlau",
   "longitude": 12.6446383291751,
   "latitude": 50.5535407582263
 },
 {
   "zipCode": "08324",
   "name": "Bockau",
   "longitude": 12.6827406995226,
   "latitude": 50.5302227190108
 },
 {
   "zipCode": "08325",
   "name": "Carlsfeld",
   "longitude": 12.5629377917501,
   "latitude": 50.4458608660715
 },
 {
   "zipCode": "08326",
   "name": "Sosa",
   "longitude": 12.6714942545114,
   "latitude": 50.4881809532701
 },
 {
   "zipCode": "08328",
   "name": "Stützengrün",
   "longitude": 12.5323289475989,
   "latitude": 50.5350664240952
 },
 {
   "zipCode": "08340",
   "name": "Schwarzenberg / Erzgebirge",
   "longitude": 12.7720954709853,
   "latitude": 50.5321872678262
 },
 {
   "zipCode": "08349",
   "name": "Johanngeorgenstadt",
   "longitude": 12.7009047647323,
   "latitude": 50.4439937771012
 },
 {
   "zipCode": "08352",
   "name": "Raschau",
   "longitude": 12.8542660629096,
   "latitude": 50.5121548287826
 },
 {
   "zipCode": "08355",
   "name": "Rittersgrün",
   "longitude": 12.8241038159626,
   "latitude": 50.4650924876
 },
 {
   "zipCode": "08358",
   "name": "Grünhain",
   "longitude": 12.8167169450852,
   "latitude": 50.5812598942335
 },
 {
   "zipCode": "08359",
   "name": "Breitenbrunn / Erzgebirge",
   "longitude": 12.7574079383302,
   "latitude": 50.4749808562199
 },
 {
   "zipCode": "08371",
   "name": "Glauchau",
   "longitude": 12.5599624357773,
   "latitude": 50.8173134598226
 },
 {
   "zipCode": "08373",
   "name": "Glauchau",
   "longitude": 12.5663346534213,
   "latitude": 50.8595637223699
 },
 {
   "zipCode": "08393",
   "name": "Meerane",
   "longitude": 12.4793185089081,
   "latitude": 50.8462307110417
 },
 {
   "zipCode": "08396",
   "name": "Waldenburg",
   "longitude": 12.5860136916214,
   "latitude": 50.8873234905535
 },
 {
   "zipCode": "08399",
   "name": "Wolkenburg-Kaufungen",
   "longitude": 12.6739019551163,
   "latitude": 50.8986628962385
 },
 {
   "zipCode": "08412",
   "name": "Werdau",
   "longitude": 12.3475629193248,
   "latitude": 50.7281180570154
 },
 {
   "zipCode": "08427",
   "name": "Fraureuth",
   "longitude": 12.3523399324194,
   "latitude": 50.6950227242493
 },
 {
   "zipCode": "08428",
   "name": "Langenbernsdorf",
   "longitude": 12.2948191476575,
   "latitude": 50.7586497148081
 },
 {
   "zipCode": "08432",
   "name": "Steinpleis",
   "longitude": 12.4029056064417,
   "latitude": 50.7130917932938
 },
 {
   "zipCode": "08439",
   "name": "Crimmitschau",
   "longitude": 12.3998919347796,
   "latitude": 50.776021375039
 },
 {
   "zipCode": "08451",
   "name": "Crimmitschau",
   "longitude": 12.3523358791229,
   "latitude": 50.815778481942
 },
 {
   "zipCode": "08459",
   "name": "Neukirchen / Pleiße",
   "longitude": 12.3871137140808,
   "latitude": 50.7856720409436
 },
 {
   "zipCode": "08468",
   "name": "Reichenbach / Vogtland",
   "longitude": 12.3318122708773,
   "latitude": 50.6231017688435
 },
 {
   "zipCode": "08485",
   "name": "Lengenfeld",
   "longitude": 12.3762108053875,
   "latitude": 50.5853191299302
 },
 {
   "zipCode": "08491",
   "name": "Netzschkau",
   "longitude": 12.2436381286013,
   "latitude": 50.598473587115
 },
 {
   "zipCode": "08496",
   "name": "Neumark",
   "longitude": 12.3531807418877,
   "latitude": 50.6566176990435
 },
 {
   "zipCode": "08499",
   "name": "Mylau",
   "longitude": 12.2637239824055,
   "latitude": 50.6234321433249
 },
 {
   "zipCode": "08523",
   "name": "Plauen",
   "longitude": 12.1160258048543,
   "latitude": 50.498539064081
 },
 {
   "zipCode": "08525",
   "name": "Plauen",
   "longitude": 12.1169079409849,
   "latitude": 50.5231334307979
 },
 {
   "zipCode": "08527",
   "name": "Plauen",
   "longitude": 12.0986247751092,
   "latitude": 50.4804942293455
 },
 {
   "zipCode": "08529",
   "name": "Plauen",
   "longitude": 12.1718490562522,
   "latitude": 50.5003517187303
 },
 {
   "zipCode": "08538",
   "name": "Weischlitz",
   "longitude": 12.0025987258213,
   "latitude": 50.4400272495619
 },
 {
   "zipCode": "08539",
   "name": "Mehltheuer",
   "longitude": 11.9990703840543,
   "latitude": 50.5307907907031
 },
 {
   "zipCode": "08541",
   "name": "Neuensalz",
   "longitude": 12.2327286288619,
   "latitude": 50.5000504630127
 },
 {
   "zipCode": "08543",
   "name": "Pöhl",
   "longitude": 12.1966776226283,
   "latitude": 50.5587768662103
 },
 {
   "zipCode": "08547",
   "name": "Jößnitz",
   "longitude": 12.1344254407869,
   "latitude": 50.5512608543529
 },
 {
   "zipCode": "08548",
   "name": "Syrau",
   "longitude": 12.0829234930141,
   "latitude": 50.5549179119474
 },
 {
   "zipCode": "08606",
   "name": "Oelsnitz",
   "longitude": 12.1238888751382,
   "latitude": 50.3945874005033
 },
 {
   "zipCode": "08626",
   "name": "Adorf",
   "longitude": 12.2251333029982,
   "latitude": 50.3501341425937
 },
 {
   "zipCode": "08645",
   "name": "Bad Elster",
   "longitude": 12.2504877661935,
   "latitude": 50.2833356736527
 },
 {
   "zipCode": "08648",
   "name": "Bad Brambach",
   "longitude": 12.3030082375668,
   "latitude": 50.2273069161752
 },
 {
   "zipCode": "09111",
   "name": "Chemnitz",
   "longitude": 12.9267830162303,
   "latitude": 50.8372846848644
 },
 {
   "zipCode": "09112",
   "name": "Chemnitz",
   "longitude": 12.9065871546338,
   "latitude": 50.8331045538051
 },
 {
   "zipCode": "09113",
   "name": "Chemnitz",
   "longitude": 12.913110691005,
   "latitude": 50.8491029007125
 },
 {
   "zipCode": "09114",
   "name": "Chemnitz",
   "longitude": 12.9137143723459,
   "latitude": 50.8732864922514
 },
 {
   "zipCode": "09116",
   "name": "Chemnitz",
   "longitude": 12.8713348985652,
   "latitude": 50.8284565742832
 },
 {
   "zipCode": "09117",
   "name": "Chemnitz",
   "longitude": 12.8356181312698,
   "latitude": 50.8236465230746
 },
 {
   "zipCode": "09119",
   "name": "Chemnitz",
   "longitude": 12.8942987983772,
   "latitude": 50.8162899788091
 },
 {
   "zipCode": "09120",
   "name": "Chemnitz",
   "longitude": 12.9109222516754,
   "latitude": 50.8114359835977
 },
 {
   "zipCode": "09122",
   "name": "Chemnitz",
   "longitude": 12.8873696000231,
   "latitude": 50.7976341231625
 },
 {
   "zipCode": "09123",
   "name": "Chemnitz",
   "longitude": 12.9369546750296,
   "latitude": 50.7701145615889
 },
 {
   "zipCode": "09125",
   "name": "Chemnitz",
   "longitude": 12.9422952093239,
   "latitude": 50.7898915599258
 },
 {
   "zipCode": "09126",
   "name": "Chemnitz",
   "longitude": 12.9400361625267,
   "latitude": 50.8141428648277
 },
 {
   "zipCode": "09127",
   "name": "Chemnitz",
   "longitude": 12.9819527238901,
   "latitude": 50.818208752639
 },
 {
   "zipCode": "09128",
   "name": "Chemnitz",
   "longitude": 13.0211799635062,
   "latitude": 50.8161243062206
 },
 {
   "zipCode": "09130",
   "name": "Chemnitz",
   "longitude": 12.9537758233364,
   "latitude": 50.8380174254233
 },
 {
   "zipCode": "09131",
   "name": "Chemnitz",
   "longitude": 12.9671023638916,
   "latitude": 50.8628164479176
 },
 {
   "zipCode": "09212",
   "name": "Limbach-Oberfrohna",
   "longitude": 12.7373537960335,
   "latitude": 50.8635838312403
 },
 {
   "zipCode": "09217",
   "name": "Burgstädt",
   "longitude": 12.8066132989662,
   "latitude": 50.9239047697883
 },
 {
   "zipCode": "09221",
   "name": "Neukirchen / Erzgebirge",
   "longitude": 12.8659780722872,
   "latitude": 50.7719828793929
 },
 {
   "zipCode": "09224",
   "name": "Grüna",
   "longitude": 12.7921182779284,
   "latitude": 50.8161629163608
 },
 {
   "zipCode": "09228",
   "name": "Wittgensdorf",
   "longitude": 12.8645128330111,
   "latitude": 50.887704658556
 },
 {
   "zipCode": "09232",
   "name": "Hartmannsdorf",
   "longitude": 12.7975494485357,
   "latitude": 50.8840816342806
 },
 {
   "zipCode": "09235",
   "name": "Burkhardtsdorf",
   "longitude": 12.9177988374825,
   "latitude": 50.7331390223064
 },
 {
   "zipCode": "09236",
   "name": "Claußnitz",
   "longitude": 12.8821165651038,
   "latitude": 50.9406361777314
 },
 {
   "zipCode": "09238",
   "name": "Auerswalde",
   "longitude": 12.9243894676595,
   "latitude": 50.9111720576876
 },
 {
   "zipCode": "09240",
   "name": "Kemtau",
   "longitude": 12.958349125034,
   "latitude": 50.743120155424
 },
 {
   "zipCode": "09241",
   "name": "Mühlau",
   "longitude": 12.7658153780141,
   "latitude": 50.9020793157059
 },
 {
   "zipCode": "09243",
   "name": "Niederfrohna",
   "longitude": 12.7354003356927,
   "latitude": 50.8892584513475
 },
 {
   "zipCode": "09244",
   "name": "Lichtenau",
   "longitude": 12.9942248778037,
   "latitude": 50.9118669102667
 },
 {
   "zipCode": "09246",
   "name": "Pleißa",
   "longitude": 12.7682123440334,
   "latitude": 50.838454425384
 },
 {
   "zipCode": "09247",
   "name": "Röhrsdorf",
   "longitude": 12.8296799269788,
   "latitude": 50.8621556174322
 },
 {
   "zipCode": "09249",
   "name": "Taura bei Burgstädt",
   "longitude": 12.8577915926272,
   "latitude": 50.911482556408
 },
 {
   "zipCode": "09306",
   "name": "Rochlitz",
   "longitude": 12.8308972196979,
   "latitude": 51.0316222706455
 },
 {
   "zipCode": "09322",
   "name": "Penig",
   "longitude": 12.7284358069656,
   "latitude": 50.9324267657589
 },
 {
   "zipCode": "09326",
   "name": "Geringswalde",
   "longitude": 12.9134052347516,
   "latitude": 51.0752029583313
 },
 {
   "zipCode": "09328",
   "name": "Lunzenau",
   "longitude": 12.7550378603045,
   "latitude": 50.9662961144297
 },
 {
   "zipCode": "09337",
   "name": "Hohenstein-Ernstthal",
   "longitude": 12.6753139142084,
   "latitude": 50.8236906566503
 },
 {
   "zipCode": "09350",
   "name": "Lichtenstein / Sachsen",
   "longitude": 12.6370534881619,
   "latitude": 50.7506509176925
 },
 {
   "zipCode": "09353",
   "name": "Oberlungwitz",
   "longitude": 12.7389711773462,
   "latitude": 50.7897238404594
 },
 {
   "zipCode": "09355",
   "name": "Gersdorf",
   "longitude": 12.7028680699199,
   "latitude": 50.7614869398771
 },
 {
   "zipCode": "09356",
   "name": "Sankt Egidien",
   "longitude": 12.6345213654408,
   "latitude": 50.8026604935581
 },
 {
   "zipCode": "09358",
   "name": "Wüstenbrand",
   "longitude": 12.7487732756206,
   "latitude": 50.8126353755586
 },
 {
   "zipCode": "09366",
   "name": "Stollberg / Erzgebirge",
   "longitude": 12.7709763519226,
   "latitude": 50.6975125911581
 },
 {
   "zipCode": "09376",
   "name": "Oelsnitz / Erzgebirge",
   "longitude": 12.6938119111935,
   "latitude": 50.7210982205368
 },
 {
   "zipCode": "09380",
   "name": "Thalheim / Erzgebirge",
   "longitude": 12.8351508185078,
   "latitude": 50.6866554088866
 },
 {
   "zipCode": "09385",
   "name": "Lugau / Erzgebirge",
   "longitude": 12.7522546032833,
   "latitude": 50.760236645411
 },
 {
   "zipCode": "09387",
   "name": "Jahnsdorf",
   "longitude": 12.8275139701905,
   "latitude": 50.7569240318118
 },
 {
   "zipCode": "09390",
   "name": "Gornsdorf",
   "longitude": 12.8803298493942,
   "latitude": 50.7185220995974
 },
 {
   "zipCode": "09392",
   "name": "Auerbach",
   "longitude": 12.9111176710294,
   "latitude": 50.689758895448
 },
 {
   "zipCode": "09394",
   "name": "Hohndorf",
   "longitude": 12.675769364323,
   "latitude": 50.74453824975
 },
 {
   "zipCode": "09395",
   "name": "Hormersdorf",
   "longitude": 12.8797256787179,
   "latitude": 50.6718723552009
 },
 {
   "zipCode": "09397",
   "name": "Neuwürschnitz",
   "longitude": 12.7292813974357,
   "latitude": 50.7055198906432
 },
 {
   "zipCode": "09399",
   "name": "Niederwürschnitz",
   "longitude": 12.7608322832993,
   "latitude": 50.729363502681
 },
 {
   "zipCode": "09405",
   "name": "Zschopau",
   "longitude": 13.0597737391109,
   "latitude": 50.7647137513564
 },
 {
   "zipCode": "09419",
   "name": "Thum",
   "longitude": 12.9510771969286,
   "latitude": 50.6760233459322
 },
 {
   "zipCode": "09423",
   "name": "Gelenau / Erzgebirge",
   "longitude": 12.953934236289,
   "latitude": 50.7122313564724
 },
 {
   "zipCode": "09427",
   "name": "Ehrenfriedersdorf",
   "longitude": 12.9607465596613,
   "latitude": 50.6463922637836
 },
 {
   "zipCode": "09429",
   "name": "Wolkenstein",
   "longitude": 13.0775790445392,
   "latitude": 50.6541068865493
 },
 {
   "zipCode": "09430",
   "name": "Drebach",
   "longitude": 13.0128790020574,
   "latitude": 50.6804718502294
 },
 {
   "zipCode": "09432",
   "name": "Großolbersdorf",
   "longitude": 13.0839784161063,
   "latitude": 50.6965986852825
 },
 {
   "zipCode": "09434",
   "name": "Krumhermersdorf",
   "longitude": 13.1079809576973,
   "latitude": 50.7369405296452
 },
 {
   "zipCode": "09435",
   "name": "Scharfenstein",
   "longitude": 13.0480578638079,
   "latitude": 50.7086185162863
 },
 {
   "zipCode": "09437",
   "name": "Waldkirchen / Erzgebirge",
   "longitude": 13.1261679701576,
   "latitude": 50.7461117837534
 },
 {
   "zipCode": "09439",
   "name": "Amtsberg",
   "longitude": 13.0095124582895,
   "latitude": 50.7446706510406
 },
 {
   "zipCode": "09456",
   "name": "Annaberg-Buchholz",
   "longitude": 13.0390824395746,
   "latitude": 50.5776455647398
 },
 {
   "zipCode": "09465",
   "name": "Sehma",
   "longitude": 12.9823186972563,
   "latitude": 50.4963432977372
 },
 {
   "zipCode": "09468",
   "name": "Geyer",
   "longitude": 12.9187137657074,
   "latitude": 50.6144189254258
 },
 {
   "zipCode": "09471",
   "name": "Bärenstein",
   "longitude": 13.0468369493324,
   "latitude": 50.52944555
 },
 {
   "zipCode": "09474",
   "name": "Crottendorf",
   "longitude": 12.9291348167857,
   "latitude": 50.5036818268231
 },
 {
   "zipCode": "09477",
   "name": "Jöhstadt",
   "longitude": 13.132163278331,
   "latitude": 50.5428078390332
 },
 {
   "zipCode": "09481",
   "name": "Scheibenberg",
   "longitude": 12.8767929562876,
   "latitude": 50.5768897844397
 },
 {
   "zipCode": "09484",
   "name": "Oberwiesenthal",
   "longitude": 12.9515776540159,
   "latitude": 50.4415038592064
 },
 {
   "zipCode": "09487",
   "name": "Schlettau",
   "longitude": 12.9510470370559,
   "latitude": 50.5674974417951
 },
 {
   "zipCode": "09488",
   "name": "Wiesa",
   "longitude": 13.0135686535114,
   "latitude": 50.6183364171423
 },
 {
   "zipCode": "09496",
   "name": "Marienberg",
   "longitude": 13.1980228446334,
   "latitude": 50.6135223477325
 },
 {
   "zipCode": "09509",
   "name": "Pockau / Flöhatal",
   "longitude": 13.2775179666108,
   "latitude": 50.7230616069823
 },
 {
   "zipCode": "09514",
   "name": "Lengefeld",
   "longitude": 13.1824485837044,
   "latitude": 50.7233213388058
 },
 {
   "zipCode": "09517",
   "name": "Zöblitz",
   "longitude": 13.2551133668441,
   "latitude": 50.6602989502376
 },
 {
   "zipCode": "09518",
   "name": "Großrückerswalde",
   "longitude": 13.1148796209929,
   "latitude": 50.6213940783332
 },
 {
   "zipCode": "09526",
   "name": "Olbernhau",
   "longitude": 13.342204773134,
   "latitude": 50.6560545973962
 },
 {
   "zipCode": "09544",
   "name": "Neuhausen / Erzgebirge",
   "longitude": 13.4948988190735,
   "latitude": 50.6822287250406
 },
 {
   "zipCode": "09548",
   "name": "Seiffen / Erzgebirge",
   "longitude": 13.4620314236802,
   "latitude": 50.6333391691379
 },
 {
   "zipCode": "09557",
   "name": "Flöha",
   "longitude": 13.0798404157347,
   "latitude": 50.8740218856906
 },
 {
   "zipCode": "09569",
   "name": "Oederan",
   "longitude": 13.1845283574642,
   "latitude": 50.8665296643539
 },
 {
   "zipCode": "09573",
   "name": "Leubsdorf",
   "longitude": 13.1311130401514,
   "latitude": 50.8082236428566
 },
 {
   "zipCode": "09575",
   "name": "Eppendorf",
   "longitude": 13.2581692375491,
   "latitude": 50.7967993849914
 },
 {
   "zipCode": "09577",
   "name": "Niederwiesa",
   "longitude": 13.0187579019308,
   "latitude": 50.8686686848228
 },
 {
   "zipCode": "09579",
   "name": "Borstendorf",
   "longitude": 13.1899750618595,
   "latitude": 50.7677983024004
 },
 {
   "zipCode": "09599",
   "name": "Freiberg",
   "longitude": 13.3340225849824,
   "latitude": 50.9145219996183
 },
 {
   "zipCode": "09600",
   "name": "Freiberg",
   "longitude": 13.3504903258263,
   "latitude": 50.9097680422667
 },
 {
   "zipCode": "09603",
   "name": "Großschirma",
   "longitude": 13.2695286155511,
   "latitude": 50.9689037877956
 },
 {
   "zipCode": "09618",
   "name": "Brand-Erbisdorf",
   "longitude": 13.3169088578281,
   "latitude": 50.8142568418226
 },
 {
   "zipCode": "09619",
   "name": "Mulda / Sachsen",
   "longitude": 13.4171472121539,
   "latitude": 50.7585486755528
 },
 {
   "zipCode": "09623",
   "name": "Frauenstein",
   "longitude": 13.5377862576833,
   "latitude": 50.7683485989789
 },
 {
   "zipCode": "09627",
   "name": "Bobritzsch",
   "longitude": 13.4488220608783,
   "latitude": 50.891661803463
 },
 {
   "zipCode": "09629",
   "name": "Reinsberg",
   "longitude": 13.3834598099214,
   "latitude": 51.0163125589043
 },
 {
   "zipCode": "09633",
   "name": "Halsbrücke",
   "longitude": 13.370679660526,
   "latitude": 50.9593036398592
 },
 {
   "zipCode": "09634",
   "name": "Siebenlehn",
   "longitude": 13.2912660234433,
   "latitude": 51.015353131559
 },
 {
   "zipCode": "09636",
   "name": "Langenau",
   "longitude": 13.2844789348611,
   "latitude": 50.83613961687
 },
 {
   "zipCode": "09638",
   "name": "Lichtenberg / Erzgebirge",
   "longitude": 13.4056970982759,
   "latitude": 50.8331420484761
 },
 {
   "zipCode": "09648",
   "name": "Mittweida",
   "longitude": 12.9852705366061,
   "latitude": 50.9886713757471
 },
 {
   "zipCode": "09661",
   "name": "Hainichen",
   "longitude": 13.1405155309005,
   "latitude": 50.9980768437475
 },
 {
   "zipCode": "09669",
   "name": "Frankenberg",
   "longitude": 13.0748925243345,
   "latitude": 50.9202833210158
 },
 {
   "zipCode": "10115",
   "name": "Berlin",
   "longitude": 13.387223860255,
   "latitude": 52.5337069545604
 },
 {
   "zipCode": "10117",
   "name": "Berlin",
   "longitude": 13.3901933840594,
   "latitude": 52.518745648599
 },
 {
   "zipCode": "10119",
   "name": "Berlin",
   "longitude": 13.4071489783586,
   "latitude": 52.5326657646216
 },
 {
   "zipCode": "10178",
   "name": "Berlin",
   "longitude": 13.4122033308763,
   "latitude": 52.5234743092278
 },
 {
   "zipCode": "10179",
   "name": "Berlin",
   "longitude": 13.4196989324626,
   "latitude": 52.5145909366732
 },
 {
   "zipCode": "10243",
   "name": "Berlin",
   "longitude": 13.441955897094,
   "latitude": 52.5149175142057
 },
 {
   "zipCode": "10245",
   "name": "Berlin",
   "longitude": 13.4666745683003,
   "latitude": 52.5031273050411
 },
 {
   "zipCode": "10247",
   "name": "Berlin",
   "longitude": 13.4680419058628,
   "latitude": 52.5184110970565
 },
 {
   "zipCode": "10249",
   "name": "Berlin",
   "longitude": 13.4446109366815,
   "latitude": 52.5260516533921
 },
 {
   "zipCode": "10315",
   "name": "Berlin",
   "longitude": 13.5180351693644,
   "latitude": 52.5110313044758
 },
 {
   "zipCode": "10317",
   "name": "Berlin",
   "longitude": 13.4918839223831,
   "latitude": 52.4992463209894
 },
 {
   "zipCode": "10318",
   "name": "Berlin",
   "longitude": 13.5319785815516,
   "latitude": 52.4859406529291
 },
 {
   "zipCode": "10319",
   "name": "Berlin",
   "longitude": 13.521117804593,
   "latitude": 52.5015461261736
 },
 {
   "zipCode": "10365",
   "name": "Berlin",
   "longitude": 13.5025751842374,
   "latitude": 52.5235035330047
 },
 {
   "zipCode": "10367",
   "name": "Berlin",
   "longitude": 13.4833221986446,
   "latitude": 52.5244522726978
 },
 {
   "zipCode": "10369",
   "name": "Berlin",
   "longitude": 13.4725178111811,
   "latitude": 52.5317005904026
 },
 {
   "zipCode": "10405",
   "name": "Berlin",
   "longitude": 13.4267880784802,
   "latitude": 52.5368169582257
 },
 {
   "zipCode": "10407",
   "name": "Berlin",
   "longitude": 13.4498736162666,
   "latitude": 52.535524401385
 },
 {
   "zipCode": "10409",
   "name": "Berlin",
   "longitude": 13.4432411934032,
   "latitude": 52.5456113489031
 },
 {
   "zipCode": "10435",
   "name": "Berlin",
   "longitude": 13.4133942261249,
   "latitude": 52.5394981804891
 },
 {
   "zipCode": "10437",
   "name": "Berlin",
   "longitude": 13.4152318322189,
   "latitude": 52.5468914296257
 },
 {
   "zipCode": "10439",
   "name": "Berlin",
   "longitude": 13.4148230973378,
   "latitude": 52.5544478879925
 },
 {
   "zipCode": "10551",
   "name": "Berlin",
   "longitude": 13.3389655683318,
   "latitude": 52.5326967400819
 },
 {
   "zipCode": "10553",
   "name": "Berlin",
   "longitude": 13.3236845323834,
   "latitude": 52.5322795508294
 },
 {
   "zipCode": "10555",
   "name": "Berlin",
   "longitude": 13.3378843627346,
   "latitude": 52.5239104697248
 },
 {
   "zipCode": "10557",
   "name": "Berlin",
   "longitude": 13.3615741646083,
   "latitude": 52.5252332996821
 },
 {
   "zipCode": "10559",
   "name": "Berlin",
   "longitude": 13.3522191245315,
   "latitude": 52.5324813297304
 },
 {
   "zipCode": "10585",
   "name": "Berlin",
   "longitude": 13.3076699591771,
   "latitude": 52.5165313568177
 },
 {
   "zipCode": "10587",
   "name": "Berlin",
   "longitude": 13.323002850878,
   "latitude": 52.5199655352473
 },
 {
   "zipCode": "10589",
   "name": "Berlin",
   "longitude": 13.3084940352002,
   "latitude": 52.5293987837623
 },
 {
   "zipCode": "10623",
   "name": "Berlin",
   "longitude": 13.3296072858482,
   "latitude": 52.5097675893044
 },
 {
   "zipCode": "10625",
   "name": "Berlin",
   "longitude": 13.3178387932193,
   "latitude": 52.5105620578802
 },
 {
   "zipCode": "10627",
   "name": "Berlin",
   "longitude": 13.3056479944576,
   "latitude": 52.5100925652213
 },
 {
   "zipCode": "10629",
   "name": "Berlin",
   "longitude": 13.3107476938185,
   "latitude": 52.5044737398752
 },
 {
   "zipCode": "10707",
   "name": "Berlin",
   "longitude": 13.3170093030047,
   "latitude": 52.4983050289072
 },
 {
   "zipCode": "10709",
   "name": "Berlin",
   "longitude": 13.306142603276,
   "latitude": 52.4954485316766
 },
 {
   "zipCode": "10711",
   "name": "Berlin",
   "longitude": 13.2943845406852,
   "latitude": 52.499380709168
 },
 {
   "zipCode": "10713",
   "name": "Berlin",
   "longitude": 13.3161107580713,
   "latitude": 52.4869762041054
 },
 {
   "zipCode": "10715",
   "name": "Berlin",
   "longitude": 13.3316870937737,
   "latitude": 52.4844027617855
 },
 {
   "zipCode": "10717",
   "name": "Berlin",
   "longitude": 13.3305003816797,
   "latitude": 52.4926932578024
 },
 {
   "zipCode": "10719",
   "name": "Berlin",
   "longitude": 13.3276744310593,
   "latitude": 52.5003181055802
 },
 {
   "zipCode": "10777",
   "name": "Berlin",
   "longitude": 13.3451852142708,
   "latitude": 52.499980342922
 },
 {
   "zipCode": "10779",
   "name": "Berlin",
   "longitude": 13.3427330390818,
   "latitude": 52.4946054529659
 },
 {
   "zipCode": "10781",
   "name": "Berlin",
   "longitude": 13.3558006569262,
   "latitude": 52.4951423148389
 },
 {
   "zipCode": "10783",
   "name": "Berlin",
   "longitude": 13.3653339673952,
   "latitude": 52.4986555479497
 },
 {
   "zipCode": "10785",
   "name": "Berlin",
   "longitude": 13.3665879428981,
   "latitude": 52.5099849607846
 },
 {
   "zipCode": "10787",
   "name": "Berlin",
   "longitude": 13.3462538795073,
   "latitude": 52.5096066309895
 },
 {
   "zipCode": "10789",
   "name": "Berlin",
   "longitude": 13.3394717112393,
   "latitude": 52.5039793544826
 },
 {
   "zipCode": "10823",
   "name": "Berlin",
   "longitude": 13.3559851567001,
   "latitude": 52.4893548491328
 },
 {
   "zipCode": "10825",
   "name": "Berlin",
   "longitude": 13.3443341278918,
   "latitude": 52.4855207111381
 },
 {
   "zipCode": "10827",
   "name": "Berlin",
   "longitude": 13.3559927861899,
   "latitude": 52.4843186813605
 },
 {
   "zipCode": "10829",
   "name": "Berlin",
   "longitude": 13.3642879770327,
   "latitude": 52.4817524353199
 },
 {
   "zipCode": "10961",
   "name": "Berlin",
   "longitude": 13.4004793776075,
   "latitude": 52.4952626002665
 },
 {
   "zipCode": "10963",
   "name": "Berlin",
   "longitude": 13.3826867450857,
   "latitude": 52.4979614983904
 },
 {
   "zipCode": "10965",
   "name": "Berlin",
   "longitude": 13.4091096524196,
   "latitude": 52.4870195291943
 },
 {
   "zipCode": "10967",
   "name": "Berlin",
   "longitude": 13.4183706052184,
   "latitude": 52.4939054520842
 },
 {
   "zipCode": "10969",
   "name": "Berlin",
   "longitude": 13.404576744008,
   "latitude": 52.5045966317146
 },
 {
   "zipCode": "10997",
   "name": "Berlin",
   "longitude": 13.4385816383592,
   "latitude": 52.5033140068311
 },
 {
   "zipCode": "10999",
   "name": "Berlin",
   "longitude": 13.4307897835171,
   "latitude": 52.4988904600018
 },
 {
   "zipCode": "12043",
   "name": "Berlin",
   "longitude": 13.4420275913886,
   "latitude": 52.4820632906188
 },
 {
   "zipCode": "12045",
   "name": "Berlin",
   "longitude": 13.4414653455142,
   "latitude": 52.487989472715
 },
 {
   "zipCode": "12047",
   "name": "Berlin",
   "longitude": 13.4310089106011,
   "latitude": 52.4929987346046
 },
 {
   "zipCode": "12049",
   "name": "Berlin",
   "longitude": 13.4242261222021,
   "latitude": 52.4799117754227
 },
 {
   "zipCode": "12051",
   "name": "Berlin",
   "longitude": 13.4327065282941,
   "latitude": 52.4699937447169
 },
 {
   "zipCode": "12053",
   "name": "Berlin",
   "longitude": 13.4347529869337,
   "latitude": 52.4803905957987
 },
 {
   "zipCode": "12055",
   "name": "Berlin",
   "longitude": 13.4515681157336,
   "latitude": 52.4752216863972
 },
 {
   "zipCode": "12057",
   "name": "Berlin",
   "longitude": 13.4652871310638,
   "latitude": 52.4711951903196
 },
 {
   "zipCode": "12059",
   "name": "Berlin",
   "longitude": 13.4537084735947,
   "latitude": 52.4844747077379
 },
 {
   "zipCode": "12099",
   "name": "Berlin",
   "longitude": 13.405508170112,
   "latitude": 52.4618263208458
 },
 {
   "zipCode": "12101",
   "name": "Berlin",
   "longitude": 13.394751159498,
   "latitude": 52.4776963253956
 },
 {
   "zipCode": "12103",
   "name": "Berlin",
   "longitude": 13.3752062205834,
   "latitude": 52.4648685781299
 },
 {
   "zipCode": "12105",
   "name": "Berlin",
   "longitude": 13.3765894059507,
   "latitude": 52.4514754565422
 },
 {
   "zipCode": "12107",
   "name": "Berlin",
   "longitude": 13.3922647383568,
   "latitude": 52.4348835778104
 },
 {
   "zipCode": "12109",
   "name": "Berlin",
   "longitude": 13.4034173372607,
   "latitude": 52.4488382457536
 },
 {
   "zipCode": "12157",
   "name": "Berlin",
   "longitude": 13.3513289658818,
   "latitude": 52.467615807441
 },
 {
   "zipCode": "12159",
   "name": "Berlin",
   "longitude": 13.3399939788589,
   "latitude": 52.4759641807104
 },
 {
   "zipCode": "12161",
   "name": "Berlin",
   "longitude": 13.3295132501498,
   "latitude": 52.4721897491969
 },
 {
   "zipCode": "12163",
   "name": "Berlin",
   "longitude": 13.3202781398441,
   "latitude": 52.4644422486276
 },
 {
   "zipCode": "12165",
   "name": "Berlin",
   "longitude": 13.317369813824,
   "latitude": 52.4576665391264
 },
 {
   "zipCode": "12167",
   "name": "Berlin",
   "longitude": 13.3370593699206,
   "latitude": 52.4506713776368
 },
 {
   "zipCode": "12169",
   "name": "Berlin",
   "longitude": 13.3463381712839,
   "latitude": 52.4568899427746
 },
 {
   "zipCode": "12203",
   "name": "Berlin",
   "longitude": 13.3129878055449,
   "latitude": 52.446403630872
 },
 {
   "zipCode": "12205",
   "name": "Berlin",
   "longitude": 13.2982488987369,
   "latitude": 52.435097309909
 },
 {
   "zipCode": "12207",
   "name": "Berlin",
   "longitude": 13.3163617750996,
   "latitude": 52.421792221188
 },
 {
   "zipCode": "12209",
   "name": "Berlin",
   "longitude": 13.3323603731155,
   "latitude": 52.4193169718975
 },
 {
   "zipCode": "12247",
   "name": "Berlin",
   "longitude": 13.3494467986603,
   "latitude": 52.4414395140715
 },
 {
   "zipCode": "12249",
   "name": "Berlin",
   "longitude": 13.3545342084671,
   "latitude": 52.4285081522747
 },
 {
   "zipCode": "12277",
   "name": "Berlin",
   "longitude": 13.3780446934416,
   "latitude": 52.4135445634688
 },
 {
   "zipCode": "12279",
   "name": "Berlin",
   "longitude": 13.3559924384162,
   "latitude": 52.4131558920874
 },
 {
   "zipCode": "12305",
   "name": "Berlin",
   "longitude": 13.4051078658903,
   "latitude": 52.4075610706165
 },
 {
   "zipCode": "12307",
   "name": "Berlin",
   "longitude": 13.3993520883087,
   "latitude": 52.3889700399218
 },
 {
   "zipCode": "12309",
   "name": "Berlin",
   "longitude": 13.4207145219275,
   "latitude": 52.3933299269535
 },
 {
   "zipCode": "12347",
   "name": "Berlin",
   "longitude": 13.4335618050316,
   "latitude": 52.4545967334104
 },
 {
   "zipCode": "12349",
   "name": "Berlin",
   "longitude": 13.4246197487488,
   "latitude": 52.4278732513536
 },
 {
   "zipCode": "12351",
   "name": "Berlin",
   "longitude": 13.4576118031613,
   "latitude": 52.4360672486559
 },
 {
   "zipCode": "12353",
   "name": "Berlin",
   "longitude": 13.4622880385421,
   "latitude": 52.4254514979954
 },
 {
   "zipCode": "12355",
   "name": "Berlin",
   "longitude": 13.5003457759319,
   "latitude": 52.4125054989062
 },
 {
   "zipCode": "12357",
   "name": "Berlin",
   "longitude": 13.4965721454986,
   "latitude": 52.430678436815
 },
 {
   "zipCode": "12359",
   "name": "Berlin",
   "longitude": 13.4560863240667,
   "latitude": 52.4498790377267
 },
 {
   "zipCode": "12435",
   "name": "Berlin",
   "longitude": 13.4695807779128,
   "latitude": 52.4892696010755
 },
 {
   "zipCode": "12437",
   "name": "Berlin",
   "longitude": 13.4852021234671,
   "latitude": 52.4644355159079
 },
 {
   "zipCode": "12439",
   "name": "Berlin",
   "longitude": 13.5287000663812,
   "latitude": 52.4553692654092
 },
 {
   "zipCode": "12459",
   "name": "Berlin",
   "longitude": 13.5338823608518,
   "latitude": 52.4674428562031
 },
 {
   "zipCode": "12487",
   "name": "Berlin",
   "longitude": 13.5123030299836,
   "latitude": 52.4437609777381
 },
 {
   "zipCode": "12489",
   "name": "Berlin",
   "longitude": 13.5505086869178,
   "latitude": 52.4387454534349
 },
 {
   "zipCode": "12524",
   "name": "Berlin",
   "longitude": 13.5439956936132,
   "latitude": 52.415364387871
 },
 {
   "zipCode": "12526",
   "name": "Berlin",
   "longitude": 13.5683342065542,
   "latitude": 52.4003510832493
 },